{
  "type": "FeatureCollection",
  "generator": "overpass-ide",
  "copyright": "The data included in this document is from www.openstreetmap.org. The data is made available under ODbL.",
  "timestamp": "2018-03-05T14:43:02Z",
  "features": [
    {
      "type": "Feature",
      "properties": {
        "@id": "node/326406230",
        "name": "Sanyang",
        "place": "village",
        "wikidata": "Q1668386"
      },
      "geometry": {
        "type": "Point",
        "coordinates": [
          -16.758371,
          13.267559
        ]
      },
      "id": "node/326406230"
    },
    {
      "type": "Feature",
      "properties": {
        "@id": "node/326409551",
        "created_by": "Potlatch 0.10f",
        "name": "Ghanatown",
        "place": "village"
      },
      "geometry": {
        "type": "Point",
        "coordinates": [
          -16.7678123,
          13.3848204
        ]
      },
      "id": "node/326409551"
    },
    {
      "type": "Feature",
      "properties": {
        "@id": "node/326410655",
        "name": "Brufut",
        "place": "village",
        "wikidata": "Q992037"
      },
      "geometry": {
        "type": "Point",
        "coordinates": [
          -16.75179,
          13.381353
        ]
      },
      "id": "node/326410655"
    },
    {
      "type": "Feature",
      "properties": {
        "@id": "node/364797697",
        "alt_name": "Tanjeh",
        "is_in": "Gambia",
        "name": "Tanji",
        "name:es": "Tanji. Llegar a las 16h aprox. Entrada pescadores",
        "place": "village",
        "wikidata": "Q1188686"
      },
      "geometry": {
        "type": "Point",
        "coordinates": [
          -16.797509,
          13.35856
        ]
      },
      "id": "node/364797697"
    },
    {
      "type": "Feature",
      "properties": {
        "@id": "node/494771403",
        "name": "Tujereng",
        "place": "village",
        "wikidata": "Q2459378"
      },
      "geometry": {
        "type": "Point",
        "coordinates": [
          -16.788919,
          13.317927
        ]
      },
      "id": "node/494771403"
    },
    {
      "type": "Feature",
      "properties": {
        "@id": "node/495133485",
        "is_in": "Banjul",
        "name": "Dippa Kunda",
        "place": "village"
      },
      "geometry": {
        "type": "Point",
        "coordinates": [
          -16.6884383,
          13.4383129
        ]
      },
      "id": "node/495133485"
    },
    {
      "type": "Feature",
      "properties": {
        "@id": "node/495952116",
        "name": "Medina Suware Kunda",
        "place": "village"
      },
      "geometry": {
        "type": "Point",
        "coordinates": [
          -16.6624576,
          13.3163875
        ]
      },
      "id": "node/495952116"
    },
    {
      "type": "Feature",
      "properties": {
        "@id": "node/495952117",
        "name": "Jambur",
        "place": "village"
      },
      "geometry": {
        "type": "Point",
        "coordinates": [
          -16.7007529,
          13.3145747
        ]
      },
      "id": "node/495952117"
    },
    {
      "type": "Feature",
      "properties": {
        "@id": "node/1394125424",
        "name": "Dobang",
        "place": "village"
      },
      "geometry": {
        "type": "Point",
        "coordinates": [
          -16.0727501,
          13.2409425
        ]
      },
      "id": "node/1394125424"
    },
    {
      "type": "Feature",
      "properties": {
        "@id": "node/1557556028",
        "name": "Tendaba",
        "place": "village",
        "tourism": "camp",
        "wikidata": "Q1658548"
      },
      "geometry": {
        "type": "Point",
        "coordinates": [
          -15.807317,
          13.438952
        ]
      },
      "id": "node/1557556028"
    },
    {
      "type": "Feature",
      "properties": {
        "@id": "node/1580790945",
        "name": "Kiti",
        "place": "village"
      },
      "geometry": {
        "type": "Point",
        "coordinates": [
          -16.6679962,
          13.2279142
        ]
      },
      "id": "node/1580790945"
    },
    {
      "type": "Feature",
      "properties": {
        "@id": "node/1580790949",
        "name": "Marakissa",
        "place": "village"
      },
      "geometry": {
        "type": "Point",
        "coordinates": [
          -16.6483129,
          13.2125607
        ]
      },
      "id": "node/1580790949"
    },
    {
      "type": "Feature",
      "properties": {
        "@id": "node/1580793351",
        "name": "Berrending",
        "place": "village"
      },
      "geometry": {
        "type": "Point",
        "coordinates": [
          -16.7429624,
          13.1401506
        ]
      },
      "id": "node/1580793351"
    },
    {
      "type": "Feature",
      "properties": {
        "@id": "node/1580793352",
        "name": "Nyofellah",
        "place": "village"
      },
      "geometry": {
        "type": "Point",
        "coordinates": [
          -16.7186288,
          13.2180588
        ]
      },
      "id": "node/1580793352"
    },
    {
      "type": "Feature",
      "properties": {
        "@id": "node/1580793353",
        "name": "Kasa Kunda",
        "place": "village"
      },
      "geometry": {
        "type": "Point",
        "coordinates": [
          -16.6920841,
          13.2468487
        ]
      },
      "id": "node/1580793353"
    },
    {
      "type": "Feature",
      "properties": {
        "@id": "node/1643668475",
        "name": "Kartong",
        "place": "village",
        "wikidata": "Q1734655"
      },
      "geometry": {
        "type": "Point",
        "coordinates": [
          -16.7612,
          13.094214
        ]
      },
      "id": "node/1643668475"
    },
    {
      "type": "Feature",
      "properties": {
        "@id": "node/1643711084",
        "name": "Juffureh",
        "place": "village",
        "wikidata": "Q1711203",
        "wikipedia": "en:Jufureh"
      },
      "geometry": {
        "type": "Point",
        "coordinates": [
          -16.3814975,
          13.3382386
        ]
      },
      "id": "node/1643711084"
    },
    {
      "type": "Feature",
      "properties": {
        "@id": "node/1643711086",
        "name": "Albreda",
        "place": "village",
        "wikidata": "Q1013025",
        "wikipedia": "en:Albreda"
      },
      "geometry": {
        "type": "Point",
        "coordinates": [
          -16.3849177,
          13.3347346
        ]
      },
      "id": "node/1643711086"
    },
    {
      "type": "Feature",
      "properties": {
        "@id": "node/1794630155",
        "name": "Dunyo Joyo",
        "place": "village"
      },
      "geometry": {
        "type": "Point",
        "coordinates": [
          -16.4637387,
          13.5706526
        ]
      },
      "id": "node/1794630155"
    },
    {
      "type": "Feature",
      "properties": {
        "@id": "node/1794630160",
        "name": "Ker Jatta",
        "place": "village"
      },
      "geometry": {
        "type": "Point",
        "coordinates": [
          -16.4423882,
          13.5534568
        ]
      },
      "id": "node/1794630160"
    },
    {
      "type": "Feature",
      "properties": {
        "@id": "node/1794630163",
        "name": "Lewna",
        "place": "village"
      },
      "geometry": {
        "type": "Point",
        "coordinates": [
          -16.4660313,
          13.5464724
        ]
      },
      "id": "node/1794630163"
    },
    {
      "type": "Feature",
      "properties": {
        "@id": "node/1794630167",
        "name": "MBangkama",
        "place": "village"
      },
      "geometry": {
        "type": "Point",
        "coordinates": [
          -16.5032643,
          13.5418664
        ]
      },
      "id": "node/1794630167"
    },
    {
      "type": "Feature",
      "properties": {
        "@id": "node/1794630170",
        "name": "Mbollet Bah",
        "place": "village"
      },
      "geometry": {
        "type": "Point",
        "coordinates": [
          -16.4922304,
          13.5188286
        ]
      },
      "id": "node/1794630170"
    },
    {
      "type": "Feature",
      "properties": {
        "@id": "node/1794630173",
        "name": "Mbulum",
        "place": "village"
      },
      "geometry": {
        "type": "Point",
        "coordinates": [
          -16.4053367,
          13.5420845
        ]
      },
      "id": "node/1794630173"
    },
    {
      "type": "Feature",
      "properties": {
        "@id": "node/1794630176",
        "name": "Medina Manneh",
        "place": "village"
      },
      "geometry": {
        "type": "Point",
        "coordinates": [
          -16.3931675,
          13.5575259
        ]
      },
      "id": "node/1794630176"
    },
    {
      "type": "Feature",
      "properties": {
        "@id": "node/1794630179",
        "name": "Medina Sotokoi",
        "place": "village"
      },
      "geometry": {
        "type": "Point",
        "coordinates": [
          -16.4556594,
          13.5500187
        ]
      },
      "id": "node/1794630179"
    },
    {
      "type": "Feature",
      "properties": {
        "@id": "node/1794630182",
        "name": "Myamba",
        "place": "village"
      },
      "geometry": {
        "type": "Point",
        "coordinates": [
          -16.517291,
          13.4920607
        ]
      },
      "id": "node/1794630182"
    },
    {
      "type": "Feature",
      "properties": {
        "@id": "node/1794630183",
        "name": "Njongon",
        "place": "village"
      },
      "geometry": {
        "type": "Point",
        "coordinates": [
          -16.4767911,
          13.5332489
        ]
      },
      "id": "node/1794630183"
    },
    {
      "type": "Feature",
      "properties": {
        "@id": "node/1794630191",
        "name": "Sam Joben",
        "place": "village"
      },
      "geometry": {
        "type": "Point",
        "coordinates": [
          -16.3754567,
          13.560218
        ]
      },
      "id": "node/1794630191"
    },
    {
      "type": "Feature",
      "properties": {
        "@id": "node/1795342189",
        "name": "Aljamdu",
        "place": "village",
        "wikidata": "Q1527950"
      },
      "geometry": {
        "type": "Point",
        "coordinates": [
          -16.457308,
          13.397129
        ]
      },
      "id": "node/1795342189"
    },
    {
      "type": "Feature",
      "properties": {
        "@id": "node/1795342191",
        "name": "Dekordeh Bah",
        "place": "village"
      },
      "geometry": {
        "type": "Point",
        "coordinates": [
          -16.3795645,
          13.4472089
        ]
      },
      "id": "node/1795342191"
    },
    {
      "type": "Feature",
      "properties": {
        "@id": "node/1795342192",
        "name": "Dungu",
        "place": "village"
      },
      "geometry": {
        "type": "Point",
        "coordinates": [
          -16.3505517,
          13.5586913
        ]
      },
      "id": "node/1795342192"
    },
    {
      "type": "Feature",
      "properties": {
        "@id": "node/1795342193",
        "name": "Fafending",
        "place": "village"
      },
      "geometry": {
        "type": "Point",
        "coordinates": [
          -16.3767464,
          13.5652955
        ]
      },
      "id": "node/1795342193"
    },
    {
      "type": "Feature",
      "properties": {
        "@id": "node/1795342195",
        "name": "Fass Omar Sahor",
        "place": "village"
      },
      "geometry": {
        "type": "Point",
        "coordinates": [
          -16.3813923,
          13.4628416
        ]
      },
      "id": "node/1795342195"
    },
    {
      "type": "Feature",
      "properties": {
        "@id": "node/1795342199",
        "name": "Ker NGatta",
        "place": "village"
      },
      "geometry": {
        "type": "Point",
        "coordinates": [
          -16.388915,
          13.5458876
        ]
      },
      "id": "node/1795342199"
    },
    {
      "type": "Feature",
      "properties": {
        "@id": "node/1795342202",
        "name": "Ker Sait Cham",
        "place": "village"
      },
      "geometry": {
        "type": "Point",
        "coordinates": [
          -16.3530653,
          13.486051
        ]
      },
      "id": "node/1795342202"
    },
    {
      "type": "Feature",
      "properties": {
        "@id": "node/1795342218",
        "name": "Lohen",
        "place": "village"
      },
      "geometry": {
        "type": "Point",
        "coordinates": [
          -16.3616993,
          13.5427951
        ]
      },
      "id": "node/1795342218"
    },
    {
      "type": "Feature",
      "properties": {
        "@id": "node/1795342219",
        "name": "Medina Sacheboe",
        "place": "village"
      },
      "geometry": {
        "type": "Point",
        "coordinates": [
          -16.3666817,
          13.4028532
        ]
      },
      "id": "node/1795342219"
    },
    {
      "type": "Feature",
      "properties": {
        "@id": "node/1795342220",
        "name": "Nema Kunku",
        "place": "village"
      },
      "geometry": {
        "type": "Point",
        "coordinates": [
          -16.4291981,
          13.4138425
        ]
      },
      "id": "node/1795342220"
    },
    {
      "type": "Feature",
      "properties": {
        "@id": "node/1795342223",
        "name": "Njambour",
        "place": "village"
      },
      "geometry": {
        "type": "Point",
        "coordinates": [
          -16.3968161,
          13.4453191
        ]
      },
      "id": "node/1795342223"
    },
    {
      "type": "Feature",
      "properties": {
        "@id": "node/1795342226",
        "name": "Pakau Ba",
        "place": "village"
      },
      "geometry": {
        "type": "Point",
        "coordinates": [
          -16.3897963,
          13.3940586
        ]
      },
      "id": "node/1795342226"
    },
    {
      "type": "Feature",
      "properties": {
        "@id": "node/1795342230",
        "name": "Pakkau",
        "place": "village"
      },
      "geometry": {
        "type": "Point",
        "coordinates": [
          -16.3796909,
          13.3762087
        ]
      },
      "id": "node/1795342230"
    },
    {
      "type": "Feature",
      "properties": {
        "@id": "node/1795342233",
        "name": "Sara Mama",
        "place": "village"
      },
      "geometry": {
        "type": "Point",
        "coordinates": [
          -16.3545076,
          13.4190588
        ]
      },
      "id": "node/1795342233"
    },
    {
      "type": "Feature",
      "properties": {
        "@id": "node/1795342237",
        "name": "Sittanunku",
        "place": "village"
      },
      "geometry": {
        "type": "Point",
        "coordinates": [
          -16.4621738,
          13.38368
        ]
      },
      "id": "node/1795342237"
    },
    {
      "type": "Feature",
      "properties": {
        "@id": "node/1795342241",
        "name": "Tuba Kolong",
        "place": "village"
      },
      "geometry": {
        "type": "Point",
        "coordinates": [
          -16.4639707,
          13.366269
        ]
      },
      "id": "node/1795342241"
    },
    {
      "type": "Feature",
      "properties": {
        "@id": "node/1877957405",
        "alt_name": "Berefet",
        "name": "Berefet",
        "place": "village"
      },
      "geometry": {
        "type": "Point",
        "coordinates": [
          -16.3798822,
          13.2438955
        ]
      },
      "id": "node/1877957405"
    },
    {
      "type": "Feature",
      "properties": {
        "@id": "node/2076271874",
        "alt_name": "some suggestion that this village is not Kunkugang",
        "name": "Kunkugang",
        "place": "village"
      },
      "geometry": {
        "type": "Point",
        "coordinates": [
          -16.7547429,
          13.3106068
        ]
      },
      "id": "node/2076271874"
    },
    {
      "type": "Feature",
      "properties": {
        "@id": "node/2076351650",
        "name": "Bintang Bolong",
        "place": "village"
      },
      "geometry": {
        "type": "Point",
        "coordinates": [
          -16.2120441,
          13.2508489
        ]
      },
      "id": "node/2076351650"
    },
    {
      "type": "Feature",
      "properties": {
        "@id": "node/2076355565",
        "name": "Bulock",
        "place": "village"
      },
      "geometry": {
        "type": "Point",
        "coordinates": [
          -16.4138771,
          13.1775935
        ]
      },
      "id": "node/2076355565"
    },
    {
      "type": "Feature",
      "properties": {
        "@id": "node/2076355928",
        "name": "Somita",
        "place": "village",
        "wikidata": "Q2299731"
      },
      "geometry": {
        "type": "Point",
        "coordinates": [
          -16.302767,
          13.207109
        ]
      },
      "id": "node/2076355928"
    },
    {
      "type": "Feature",
      "properties": {
        "@id": "node/2076356269",
        "name": "Jakoi Sibrik",
        "old_name": "Kakoi Sobril",
        "place": "village"
      },
      "geometry": {
        "type": "Point",
        "coordinates": [
          -16.2909654,
          13.2701043
        ]
      },
      "id": "node/2076356269"
    },
    {
      "type": "Feature",
      "properties": {
        "@id": "node/2076356270",
        "name": "Kanuma",
        "place": "village"
      },
      "geometry": {
        "type": "Point",
        "coordinates": [
          -16.2739459,
          13.2313564
        ]
      },
      "id": "node/2076356270"
    },
    {
      "type": "Feature",
      "properties": {
        "@id": "node/2076357360",
        "name": "Janack",
        "place": "village"
      },
      "geometry": {
        "type": "Point",
        "coordinates": [
          -16.2475211,
          13.1820013
        ]
      },
      "id": "node/2076357360"
    },
    {
      "type": "Feature",
      "properties": {
        "@id": "node/2076381227",
        "name": "Gunjur Madina",
        "place": "village"
      },
      "geometry": {
        "type": "Point",
        "coordinates": [
          -16.7757298,
          13.1538416
        ]
      },
      "id": "node/2076381227"
    },
    {
      "type": "Feature",
      "properties": {
        "@id": "node/2076514520",
        "name": "Kaimo",
        "old_name": "Kayimu Bintang",
        "place": "village"
      },
      "geometry": {
        "type": "Point",
        "coordinates": [
          -16.1818016,
          13.1914658
        ]
      },
      "id": "node/2076514520"
    },
    {
      "type": "Feature",
      "properties": {
        "@id": "node/2076514625",
        "name": "Upert",
        "place": "village"
      },
      "geometry": {
        "type": "Point",
        "coordinates": [
          -16.246518,
          13.1691527
        ]
      },
      "id": "node/2076514625"
    },
    {
      "type": "Feature",
      "properties": {
        "@id": "node/2076514713",
        "name": "Jakisu",
        "place": "village"
      },
      "geometry": {
        "type": "Point",
        "coordinates": [
          -16.2300063,
          13.1735027
        ]
      },
      "id": "node/2076514713"
    },
    {
      "type": "Feature",
      "properties": {
        "@id": "node/2076514994",
        "name": "Jifanga",
        "place": "village"
      },
      "geometry": {
        "type": "Point",
        "coordinates": [
          -16.1914146,
          13.1701556
        ]
      },
      "id": "node/2076514994"
    },
    {
      "type": "Feature",
      "properties": {
        "@id": "node/2076515008",
        "name": "Kusamai",
        "place": "village"
      },
      "geometry": {
        "type": "Point",
        "coordinates": [
          -16.1741069,
          13.172387
        ]
      },
      "id": "node/2076515008"
    },
    {
      "type": "Feature",
      "properties": {
        "@id": "node/2076515830",
        "name": "Sibanor",
        "place": "village",
        "wikidata": "Q2280805"
      },
      "geometry": {
        "type": "Point",
        "coordinates": [
          -16.193505,
          13.205939
        ]
      },
      "id": "node/2076515830"
    },
    {
      "type": "Feature",
      "properties": {
        "@id": "node/2115560890",
        "place": "village"
      },
      "geometry": {
        "type": "Point",
        "coordinates": [
          -13.8702288,
          13.3323921
        ]
      },
      "id": "node/2115560890"
    },
    {
      "type": "Feature",
      "properties": {
        "@id": "node/2197082613",
        "name": "Kerewan",
        "name:ru": "Кереван",
        "place": "village",
        "wikidata": "Q1478583"
      },
      "geometry": {
        "type": "Point",
        "coordinates": [
          -16.089092,
          13.493636
        ]
      },
      "id": "node/2197082613"
    },
    {
      "type": "Feature",
      "properties": {
        "@id": "node/2197082614",
        "name": "Njawara",
        "place": "village"
      },
      "geometry": {
        "type": "Point",
        "coordinates": [
          -16.0792946,
          13.5771001
        ]
      },
      "id": "node/2197082614"
    },
    {
      "type": "Feature",
      "properties": {
        "@id": "node/2251183320",
        "name": "Missira",
        "place": "village"
      },
      "geometry": {
        "type": "Point",
        "coordinates": [
          -15.5342793,
          13.382017
        ]
      },
      "id": "node/2251183320"
    },
    {
      "type": "Feature",
      "properties": {
        "@id": "node/2332998630",
        "name": "Kass",
        "place": "village"
      },
      "geometry": {
        "type": "Point",
        "coordinates": [
          -14.9382014,
          13.7814039
        ]
      },
      "id": "node/2332998630"
    },
    {
      "type": "Feature",
      "properties": {
        "@id": "node/2411690664",
        "GNS:dsg_code": "PPL",
        "GNS:dsg_string": "populated place",
        "GNS:id": "121819",
        "GNS:modify_date": "1996-02-28",
        "is_in:country": "Senegal",
        "name": "Dimbaya",
        "place": "village",
        "source": "GNS",
        "wikidata": "Q3028053"
      },
      "geometry": {
        "type": "Point",
        "coordinates": [
          -16.634771,
          13.169535
        ]
      },
      "id": "node/2411690664"
    },
    {
      "type": "Feature",
      "properties": {
        "@id": "node/2411690681",
        "FIXME": "check",
        "GNS:dsg_code": "PPL",
        "GNS:dsg_string": "populated place",
        "GNS:id": "121823",
        "GNS:modify_date": "1996-02-28",
        "is_in:country": "Senegal",
        "name": "Fufo",
        "place": "village",
        "source": "GNS"
      },
      "geometry": {
        "type": "Point",
        "coordinates": [
          -16.5903068,
          13.1696117
        ]
      },
      "id": "node/2411690681"
    },
    {
      "type": "Feature",
      "properties": {
        "@id": "node/2439021203",
        "name": "Bali",
        "place": "village"
      },
      "geometry": {
        "type": "Point",
        "coordinates": [
          -16.1165113,
          13.5669747
        ]
      },
      "id": "node/2439021203"
    },
    {
      "type": "Feature",
      "properties": {
        "@id": "node/2439021208",
        "name": "Bantanding Toranka",
        "place": "village"
      },
      "geometry": {
        "type": "Point",
        "coordinates": [
          -16.2525808,
          13.5886272
        ]
      },
      "id": "node/2439021208"
    },
    {
      "type": "Feature",
      "properties": {
        "@id": "node/2439021212",
        "name": "Drame Joku",
        "place": "village"
      },
      "geometry": {
        "type": "Point",
        "coordinates": [
          -16.1559274,
          13.5655297
        ]
      },
      "id": "node/2439021212"
    },
    {
      "type": "Feature",
      "properties": {
        "@id": "node/2439021220",
        "name": "Karantaba",
        "place": "village"
      },
      "geometry": {
        "type": "Point",
        "coordinates": [
          -16.1445638,
          13.5036807
        ]
      },
      "id": "node/2439021220"
    },
    {
      "type": "Feature",
      "properties": {
        "@id": "node/2439021225",
        "name": "Chissay Majaw",
        "place": "village"
      },
      "geometry": {
        "type": "Point",
        "coordinates": [
          -16.158081,
          13.5809423
        ]
      },
      "id": "node/2439021225"
    },
    {
      "type": "Feature",
      "properties": {
        "@id": "node/2439021229",
        "name": "Kerr Omar Saine",
        "place": "village",
        "population": "1200"
      },
      "geometry": {
        "type": "Point",
        "coordinates": [
          -16.2210495,
          13.5788948
        ]
      },
      "id": "node/2439021229"
    },
    {
      "type": "Feature",
      "properties": {
        "@id": "node/2439021234",
        "name": "Tallen",
        "place": "village"
      },
      "geometry": {
        "type": "Point",
        "coordinates": [
          -16.1740433,
          13.5784558
        ]
      },
      "id": "node/2439021234"
    },
    {
      "type": "Feature",
      "properties": {
        "@id": "node/2439021236",
        "name": "Tambana",
        "place": "village"
      },
      "geometry": {
        "type": "Point",
        "coordinates": [
          -16.173506,
          13.5058419
        ]
      },
      "id": "node/2439021236"
    },
    {
      "type": "Feature",
      "properties": {
        "@id": "node/2487593834",
        "name": "Sinchan",
        "place": "village"
      },
      "geometry": {
        "type": "Point",
        "coordinates": [
          -15.0429888,
          13.6538379
        ]
      },
      "id": "node/2487593834"
    },
    {
      "type": "Feature",
      "properties": {
        "@id": "node/2487593836",
        "name": "Kerewan Demba",
        "place": "village",
        "wikidata": "Q1739236"
      },
      "geometry": {
        "type": "Point",
        "coordinates": [
          -15.0345466,
          13.6621428
        ]
      },
      "id": "node/2487593836"
    },
    {
      "type": "Feature",
      "properties": {
        "@id": "node/2487595562",
        "name": "Sambel Kunda",
        "place": "village"
      },
      "geometry": {
        "type": "Point",
        "coordinates": [
          -14.9591206,
          13.6673915
        ]
      },
      "id": "node/2487595562"
    },
    {
      "type": "Feature",
      "properties": {
        "@id": "node/2487602866",
        "name": "Touba Demba Sama",
        "place": "village"
      },
      "geometry": {
        "type": "Point",
        "coordinates": [
          -14.9766515,
          13.6647331
        ]
      },
      "id": "node/2487602866"
    },
    {
      "type": "Feature",
      "properties": {
        "@id": "node/2487603272",
        "name": "Kununku",
        "place": "village"
      },
      "geometry": {
        "type": "Point",
        "coordinates": [
          -14.9898131,
          13.6644073
        ]
      },
      "id": "node/2487603272"
    },
    {
      "type": "Feature",
      "properties": {
        "@id": "node/2487620629",
        "name": "Sinchu Alhagi",
        "place": "village"
      },
      "geometry": {
        "type": "Point",
        "coordinates": [
          -15.0332944,
          13.6187882
        ]
      },
      "id": "node/2487620629"
    },
    {
      "type": "Feature",
      "properties": {
        "@id": "node/2487626733",
        "name": "Tenengfara",
        "place": "village"
      },
      "geometry": {
        "type": "Point",
        "coordinates": [
          -15.0234024,
          13.6242728
        ]
      },
      "id": "node/2487626733"
    },
    {
      "type": "Feature",
      "properties": {
        "@id": "node/2505435576",
        "alt_name": "Coley Kunda",
        "name": "Koli Kunda",
        "place": "village"
      },
      "geometry": {
        "type": "Point",
        "coordinates": [
          -14.7679689,
          13.5594498
        ]
      },
      "id": "node/2505435576"
    },
    {
      "type": "Feature",
      "properties": {
        "@id": "node/2505446187",
        "name": "Sotikoi",
        "place": "village"
      },
      "geometry": {
        "type": "Point",
        "coordinates": [
          -14.7677065,
          13.5542466
        ]
      },
      "id": "node/2505446187"
    },
    {
      "type": "Feature",
      "properties": {
        "@id": "node/2505446452",
        "name": "Lamin Koto",
        "place": "village",
        "population": "407",
        "wikidata": "Q1768115",
        "wikipedia": "de:Lamin Koto"
      },
      "geometry": {
        "type": "Point",
        "coordinates": [
          -14.763007,
          13.5496
        ]
      },
      "id": "node/2505446452"
    },
    {
      "type": "Feature",
      "properties": {
        "@id": "node/2521669058",
        "name": "Jakaba",
        "place": "village",
        "wikidata": "Q1678802"
      },
      "geometry": {
        "type": "Point",
        "coordinates": [
          -14.8754335,
          13.6551579
        ]
      },
      "id": "node/2521669058"
    },
    {
      "type": "Feature",
      "properties": {
        "@id": "node/2521678720",
        "name": "Sare Soffie",
        "place": "village",
        "population": "Around 1000"
      },
      "geometry": {
        "type": "Point",
        "coordinates": [
          -14.521094,
          13.4170064
        ]
      },
      "id": "node/2521678720"
    },
    {
      "type": "Feature",
      "properties": {
        "@id": "node/2521678754",
        "name": "Santanto Bubu (Santanto Garas)",
        "place": "village"
      },
      "geometry": {
        "type": "Point",
        "coordinates": [
          -14.5666111,
          13.3632184
        ]
      },
      "id": "node/2521678754"
    },
    {
      "type": "Feature",
      "properties": {
        "@id": "node/2521707041",
        "name": "Santanto Yeroyel Bankunba",
        "place": "village"
      },
      "geometry": {
        "type": "Point",
        "coordinates": [
          -14.5276883,
          13.4348146
        ]
      },
      "id": "node/2521707041"
    },
    {
      "type": "Feature",
      "properties": {
        "@id": "node/2561305825",
        "alt_name": "Kandonko",
        "name": "Kandonku",
        "place": "village",
        "source": "field observation"
      },
      "geometry": {
        "type": "Point",
        "coordinates": [
          -16.3118164,
          13.2452248
        ]
      },
      "id": "node/2561305825"
    },
    {
      "type": "Feature",
      "properties": {
        "@id": "node/2561336349",
        "name": "Kanalai",
        "place": "village"
      },
      "geometry": {
        "type": "Point",
        "coordinates": [
          -16.0064603,
          13.1694083
        ]
      },
      "id": "node/2561336349"
    },
    {
      "type": "Feature",
      "properties": {
        "@id": "node/2562034997",
        "name": "Darsalami",
        "place": "village"
      },
      "geometry": {
        "type": "Point",
        "coordinates": [
          -16.656727,
          13.1769255
        ]
      },
      "id": "node/2562034997"
    },
    {
      "type": "Feature",
      "properties": {
        "@id": "node/2562035675",
        "name": "Sifoe",
        "old_name": "Siffoe",
        "place": "village",
        "wikidata": "Q2284636"
      },
      "geometry": {
        "type": "Point",
        "coordinates": [
          -16.694601,
          13.186979
        ]
      },
      "id": "node/2562035675"
    },
    {
      "type": "Feature",
      "properties": {
        "@id": "node/2562041232",
        "name": "Jambanjelly",
        "place": "village"
      },
      "geometry": {
        "type": "Point",
        "coordinates": [
          -16.7257572,
          13.2811417
        ]
      },
      "id": "node/2562041232"
    },
    {
      "type": "Feature",
      "properties": {
        "@id": "node/2562041502",
        "name": "Kunjukeng",
        "place": "village"
      },
      "geometry": {
        "type": "Point",
        "coordinates": [
          -16.7405973,
          13.2267375
        ]
      },
      "id": "node/2562041502"
    },
    {
      "type": "Feature",
      "properties": {
        "@id": "node/2562070052",
        "alt_name": "Ndemban Chapichon",
        "description": "Though the signs on both sides of the village say \"Ndemban Chapechum\" or \"Ndemban Japichum,\" many villagers refer to this area as \"Ndemban.\"",
        "name": "Ndemban Chapechum",
        "place": "village"
      },
      "geometry": {
        "type": "Point",
        "coordinates": [
          -16.341991,
          13.20406
        ]
      },
      "id": "node/2562070052"
    },
    {
      "type": "Feature",
      "properties": {
        "@id": "node/2562680243",
        "name": "Sohm",
        "place": "village"
      },
      "geometry": {
        "type": "Point",
        "coordinates": [
          -16.4919603,
          13.1831827
        ]
      },
      "id": "node/2562680243"
    },
    {
      "type": "Feature",
      "properties": {
        "@id": "node/2562680981",
        "name": "Tumani Tenda",
        "place": "village"
      },
      "geometry": {
        "type": "Point",
        "coordinates": [
          -16.473121,
          13.2167809
        ]
      },
      "id": "node/2562680981"
    },
    {
      "type": "Feature",
      "properties": {
        "@id": "node/2562735463",
        "name": "Sutusinjang",
        "place": "village",
        "source": "field observation",
        "wikidata": "Q2370023"
      },
      "geometry": {
        "type": "Point",
        "coordinates": [
          -16.385196,
          13.186688
        ]
      },
      "id": "node/2562735463"
    },
    {
      "type": "Feature",
      "properties": {
        "@id": "node/2562735539",
        "name": "Bajana",
        "place": "village",
        "source": "field observation"
      },
      "geometry": {
        "type": "Point",
        "coordinates": [
          -16.3961291,
          13.1888289
        ]
      },
      "id": "node/2562735539"
    },
    {
      "type": "Feature",
      "properties": {
        "@id": "node/2562736618",
        "name": "Besse",
        "place": "village",
        "source": "field observation"
      },
      "geometry": {
        "type": "Point",
        "coordinates": [
          -16.3603163,
          13.1953261
        ]
      },
      "id": "node/2562736618"
    },
    {
      "type": "Feature",
      "properties": {
        "@id": "node/2562739916",
        "alt_name": "Kayimu Karanai",
        "name": "Kaimo Karanai",
        "place": "village",
        "source": "field observation"
      },
      "geometry": {
        "type": "Point",
        "coordinates": [
          -16.1801791,
          13.1855698
        ]
      },
      "id": "node/2562739916"
    },
    {
      "type": "Feature",
      "properties": {
        "@id": "node/2562743403",
        "name": "Kabokorr",
        "place": "village",
        "source": "field observation",
        "wikidata": "Q1720835"
      },
      "geometry": {
        "type": "Point",
        "coordinates": [
          -16.252148,
          13.207171
        ]
      },
      "id": "node/2562743403"
    },
    {
      "type": "Feature",
      "properties": {
        "@id": "node/2562743777",
        "alt_name": "Killing",
        "name": "Killy",
        "place": "village",
        "source": "field observation"
      },
      "geometry": {
        "type": "Point",
        "coordinates": [
          -16.2312055,
          13.2064608
        ]
      },
      "id": "node/2562743777"
    },
    {
      "type": "Feature",
      "properties": {
        "@id": "node/2562744025",
        "name": "Kassagne",
        "place": "village",
        "source": "field observation"
      },
      "geometry": {
        "type": "Point",
        "coordinates": [
          -16.2290812,
          13.2325304
        ]
      },
      "id": "node/2562744025"
    },
    {
      "type": "Feature",
      "properties": {
        "@id": "node/2562744080",
        "name": "Katakorr",
        "place": "village",
        "source": "field observation"
      },
      "geometry": {
        "type": "Point",
        "coordinates": [
          -16.225369,
          13.2377523
        ]
      },
      "id": "node/2562744080"
    },
    {
      "type": "Feature",
      "properties": {
        "@id": "node/2562744446",
        "name": "Batending Kajara",
        "place": "village",
        "source": "field observation"
      },
      "geometry": {
        "type": "Point",
        "coordinates": [
          -16.3161349,
          13.2570516
        ]
      },
      "id": "node/2562744446"
    },
    {
      "type": "Feature",
      "properties": {
        "@id": "node/2562744852",
        "name": "Paima",
        "place": "village",
        "source": "field observation"
      },
      "geometry": {
        "type": "Point",
        "coordinates": [
          -16.3037214,
          13.2652808
        ]
      },
      "id": "node/2562744852"
    },
    {
      "type": "Feature",
      "properties": {
        "@id": "node/2562745014",
        "name": "Tampoto Koto",
        "place": "village",
        "source": "field observation"
      },
      "geometry": {
        "type": "Point",
        "coordinates": [
          -16.2718034,
          13.2190991
        ]
      },
      "id": "node/2562745014"
    },
    {
      "type": "Feature",
      "properties": {
        "@id": "node/2562745140",
        "name": "Tampoto",
        "place": "village",
        "source": "field observation"
      },
      "geometry": {
        "type": "Point",
        "coordinates": [
          -16.2680697,
          13.2069622
        ]
      },
      "id": "node/2562745140"
    },
    {
      "type": "Feature",
      "properties": {
        "@id": "node/2562746219",
        "name": "Jalokoto",
        "place": "village",
        "source": "field observation"
      },
      "geometry": {
        "type": "Point",
        "coordinates": [
          -16.2886477,
          13.2055626
        ]
      },
      "id": "node/2562746219"
    },
    {
      "type": "Feature",
      "properties": {
        "@id": "node/2562748332",
        "name": "Tamba Kunda",
        "place": "village"
      },
      "geometry": {
        "type": "Point",
        "coordinates": [
          -16.135236,
          13.1672781
        ]
      },
      "id": "node/2562748332"
    },
    {
      "type": "Feature",
      "properties": {
        "@id": "node/2562748451",
        "name": "Seawall",
        "place": "village"
      },
      "geometry": {
        "type": "Point",
        "coordinates": [
          -16.15031,
          13.168772
        ]
      },
      "id": "node/2562748451"
    },
    {
      "type": "Feature",
      "properties": {
        "@id": "node/2562748588",
        "name": "Batabut Danelu",
        "place": "village"
      },
      "geometry": {
        "type": "Point",
        "coordinates": [
          -16.1530566,
          13.196684
        ]
      },
      "id": "node/2562748588"
    },
    {
      "type": "Feature",
      "properties": {
        "@id": "node/2562748684",
        "alt_name": "Arangalen",
        "name": "Arangallen",
        "place": "village"
      },
      "geometry": {
        "type": "Point",
        "coordinates": [
          -16.1450743,
          13.2072547
        ]
      },
      "id": "node/2562748684"
    },
    {
      "type": "Feature",
      "properties": {
        "@id": "node/2562749583",
        "name": "Bantabut Kantora",
        "place": "village"
      },
      "geometry": {
        "type": "Point",
        "coordinates": [
          -16.1582804,
          13.2070948
        ]
      },
      "id": "node/2562749583"
    },
    {
      "type": "Feature",
      "properties": {
        "@id": "node/2562749755",
        "name": "Siken",
        "place": "village"
      },
      "geometry": {
        "type": "Point",
        "coordinates": [
          -16.1745143,
          13.2058341
        ]
      },
      "id": "node/2562749755"
    },
    {
      "type": "Feature",
      "properties": {
        "@id": "node/2562751372",
        "name": "Kaianga",
        "place": "village"
      },
      "geometry": {
        "type": "Point",
        "coordinates": [
          -16.2011218,
          13.1766278
        ]
      },
      "id": "node/2562751372"
    },
    {
      "type": "Feature",
      "properties": {
        "@id": "node/2562751533",
        "alt_name": "Batending (Ajapina)",
        "name": "Batending",
        "place": "village"
      },
      "geometry": {
        "type": "Point",
        "coordinates": [
          -16.2155414,
          13.1838566
        ]
      },
      "id": "node/2562751533"
    },
    {
      "type": "Feature",
      "properties": {
        "@id": "node/2562752255",
        "name": "Jakine",
        "place": "village"
      },
      "geometry": {
        "type": "Point",
        "coordinates": [
          -16.2315917,
          13.1708614
        ]
      },
      "id": "node/2562752255"
    },
    {
      "type": "Feature",
      "properties": {
        "@id": "node/2562755831",
        "name": "Sita",
        "place": "village"
      },
      "geometry": {
        "type": "Point",
        "coordinates": [
          -16.160953,
          13.2345356
        ]
      },
      "id": "node/2562755831"
    },
    {
      "type": "Feature",
      "properties": {
        "@id": "node/2562756754",
        "name": "Jakoi Kanjeru",
        "place": "village"
      },
      "geometry": {
        "type": "Point",
        "coordinates": [
          -16.1743426,
          13.228687
        ]
      },
      "id": "node/2562756754"
    },
    {
      "type": "Feature",
      "properties": {
        "@id": "node/2562757433",
        "name": "Gibanack",
        "place": "village"
      },
      "geometry": {
        "type": "Point",
        "coordinates": [
          -16.1400104,
          13.2147332
        ]
      },
      "id": "node/2562757433"
    },
    {
      "type": "Feature",
      "properties": {
        "@id": "node/2562760016",
        "name": "Kasila",
        "place": "village"
      },
      "geometry": {
        "type": "Point",
        "coordinates": [
          -16.2740993,
          13.2284676
        ]
      },
      "id": "node/2562760016"
    },
    {
      "type": "Feature",
      "properties": {
        "@id": "node/2562761743",
        "name": "Jalang",
        "place": "village"
      },
      "geometry": {
        "type": "Point",
        "coordinates": [
          -16.2809229,
          13.2298776
        ]
      },
      "id": "node/2562761743"
    },
    {
      "type": "Feature",
      "properties": {
        "@id": "node/2562763746",
        "alt_name": "Nyangit",
        "name": "Kaira Manjanfa",
        "place": "village"
      },
      "geometry": {
        "type": "Point",
        "coordinates": [
          -16.289506,
          13.2397784
        ]
      },
      "id": "node/2562763746"
    },
    {
      "type": "Feature",
      "properties": {
        "@id": "node/2562765847",
        "name": "Kuyel tbc",
        "place": "village"
      },
      "geometry": {
        "type": "Point",
        "coordinates": [
          -16.2492728,
          13.1716135
        ]
      },
      "id": "node/2562765847"
    },
    {
      "type": "Feature",
      "properties": {
        "@id": "node/2562767631",
        "name": "Jelembere tbc",
        "place": "village"
      },
      "geometry": {
        "type": "Point",
        "coordinates": [
          -16.2612033,
          13.1834388
        ]
      },
      "id": "node/2562767631"
    },
    {
      "type": "Feature",
      "properties": {
        "@id": "node/2562767719",
        "name": "Bukafneh tbc",
        "place": "village"
      },
      "geometry": {
        "type": "Point",
        "coordinates": [
          -16.2815666,
          13.1834994
        ]
      },
      "id": "node/2562767719"
    },
    {
      "type": "Feature",
      "properties": {
        "@id": "node/2562770806",
        "name": "Kanjabina",
        "place": "village"
      },
      "geometry": {
        "type": "Point",
        "coordinates": [
          -16.3218427,
          13.1714882
        ]
      },
      "id": "node/2562770806"
    },
    {
      "type": "Feature",
      "properties": {
        "@id": "node/2562771250",
        "name": "Kanaw",
        "place": "village"
      },
      "geometry": {
        "type": "Point",
        "coordinates": [
          -16.3042688,
          13.1682079
        ]
      },
      "id": "node/2562771250"
    },
    {
      "type": "Feature",
      "properties": {
        "@id": "node/2562774280",
        "name": "Ndembanba",
        "place": "village"
      },
      "geometry": {
        "type": "Point",
        "coordinates": [
          -16.3437724,
          13.2078396
        ]
      },
      "id": "node/2562774280"
    },
    {
      "type": "Feature",
      "properties": {
        "@id": "node/2562776423",
        "name": "Jarju Kunda",
        "place": "village"
      },
      "geometry": {
        "type": "Point",
        "coordinates": [
          -16.3430858,
          13.1945531
        ]
      },
      "id": "node/2562776423"
    },
    {
      "type": "Feature",
      "properties": {
        "@id": "node/2562777345",
        "name": "Kaur tbc",
        "place": "village"
      },
      "geometry": {
        "type": "Point",
        "coordinates": [
          -16.3448668,
          13.1803676
        ]
      },
      "id": "node/2562777345"
    },
    {
      "type": "Feature",
      "properties": {
        "@id": "node/2562778111",
        "name": "Ndemban Jola tbc",
        "place": "village"
      },
      "geometry": {
        "type": "Point",
        "coordinates": [
          -16.3443518,
          13.1833542
        ]
      },
      "id": "node/2562778111"
    },
    {
      "type": "Feature",
      "properties": {
        "@id": "node/2562785985",
        "name": "Jagil",
        "place": "village"
      },
      "geometry": {
        "type": "Point",
        "coordinates": [
          -16.3691783,
          13.192088
        ]
      },
      "id": "node/2562785985"
    },
    {
      "type": "Feature",
      "properties": {
        "@id": "node/2562790812",
        "name": "Sita Nunku",
        "place": "village"
      },
      "geometry": {
        "type": "Point",
        "coordinates": [
          -16.1310089,
          13.183491
        ]
      },
      "id": "node/2562790812"
    },
    {
      "type": "Feature",
      "properties": {
        "@id": "node/2562790814",
        "name": "Gilanfarr",
        "place": "village"
      },
      "geometry": {
        "type": "Point",
        "coordinates": [
          -16.1159778,
          13.1704853
        ]
      },
      "id": "node/2562790814"
    },
    {
      "type": "Feature",
      "properties": {
        "@id": "node/2562791195",
        "name": "Karinorr",
        "place": "village"
      },
      "geometry": {
        "type": "Point",
        "coordinates": [
          -16.103189,
          13.1685213
        ]
      },
      "id": "node/2562791195"
    },
    {
      "type": "Feature",
      "properties": {
        "@id": "node/2562791676",
        "name": "Ballen",
        "place": "village"
      },
      "geometry": {
        "type": "Point",
        "coordinates": [
          -16.0926747,
          13.1680617
        ]
      },
      "id": "node/2562791676"
    },
    {
      "type": "Feature",
      "properties": {
        "@id": "node/2562794647",
        "name": "Kambagal",
        "place": "village"
      },
      "geometry": {
        "type": "Point",
        "coordinates": [
          -16.0810447,
          13.1856533
        ]
      },
      "id": "node/2562794647"
    },
    {
      "type": "Feature",
      "properties": {
        "@id": "node/2562797057",
        "name": "Kappa",
        "place": "village"
      },
      "geometry": {
        "type": "Point",
        "coordinates": [
          -16.1009145,
          13.1848176
        ]
      },
      "id": "node/2562797057"
    },
    {
      "type": "Feature",
      "properties": {
        "@id": "node/2562798477",
        "name": "Karrol tbc",
        "place": "village"
      },
      "geometry": {
        "type": "Point",
        "coordinates": [
          -16.0792851,
          13.1733685
        ]
      },
      "id": "node/2562798477"
    },
    {
      "type": "Feature",
      "properties": {
        "@id": "node/2562816525",
        "name": "Kunjenjeng tbc",
        "place": "village"
      },
      "geometry": {
        "type": "Point",
        "coordinates": [
          -16.0340095,
          13.1671841
        ]
      },
      "id": "node/2562816525"
    },
    {
      "type": "Feature",
      "properties": {
        "@id": "node/2562816681",
        "name": "Gikis Dandon tbc",
        "place": "village"
      },
      "geometry": {
        "type": "Point",
        "coordinates": [
          -16.0621834,
          13.1668916
        ]
      },
      "id": "node/2562816681"
    },
    {
      "type": "Feature",
      "properties": {
        "@id": "node/2562816948",
        "name": "Kanling",
        "place": "village"
      },
      "geometry": {
        "type": "Point",
        "coordinates": [
          -16.0546517,
          13.1754578
        ]
      },
      "id": "node/2562816948"
    },
    {
      "type": "Feature",
      "properties": {
        "@id": "node/2562816974",
        "name": "Bunuborr",
        "place": "village"
      },
      "geometry": {
        "type": "Point",
        "coordinates": [
          -16.0519052,
          13.1815167
        ]
      },
      "id": "node/2562816974"
    },
    {
      "type": "Feature",
      "properties": {
        "@id": "node/2562817745",
        "name": "Monom tbc",
        "place": "village"
      },
      "geometry": {
        "type": "Point",
        "coordinates": [
          -16.0630202,
          13.191127
        ]
      },
      "id": "node/2562817745"
    },
    {
      "type": "Feature",
      "properties": {
        "@id": "node/2562819376",
        "name": "Karran tbc",
        "place": "village"
      },
      "geometry": {
        "type": "Point",
        "coordinates": [
          -16.0599089,
          13.1890796
        ]
      },
      "id": "node/2562819376"
    },
    {
      "type": "Feature",
      "properties": {
        "@id": "node/2562823990",
        "name": "Bugighi tbc",
        "place": "village"
      },
      "geometry": {
        "type": "Point",
        "coordinates": [
          -16.0819888,
          13.2016769
        ]
      },
      "id": "node/2562823990"
    },
    {
      "type": "Feature",
      "properties": {
        "@id": "node/2562835948",
        "name": "Kampanti",
        "place": "village"
      },
      "geometry": {
        "type": "Point",
        "coordinates": [
          -16.1088753,
          13.200716
        ]
      },
      "id": "node/2562835948"
    },
    {
      "type": "Feature",
      "properties": {
        "@id": "node/2562838594",
        "name": "Kambong",
        "place": "village"
      },
      "geometry": {
        "type": "Point",
        "coordinates": [
          -16.1049802,
          13.2154852
        ]
      },
      "id": "node/2562838594"
    },
    {
      "type": "Feature",
      "properties": {
        "@id": "node/2562840453",
        "name": "Buram tbc",
        "place": "village"
      },
      "geometry": {
        "type": "Point",
        "coordinates": [
          -16.2237811,
          13.2578035
        ]
      },
      "id": "node/2562840453"
    },
    {
      "type": "Feature",
      "properties": {
        "@id": "node/2562843566",
        "name": "Bulanjor tbc",
        "place": "village"
      },
      "geometry": {
        "type": "Point",
        "coordinates": [
          -16.2473738,
          13.2796595
        ]
      },
      "id": "node/2562843566"
    },
    {
      "type": "Feature",
      "properties": {
        "@id": "node/2562844988",
        "name": "Tuba Kuta tbc",
        "place": "village"
      },
      "geometry": {
        "type": "Point",
        "coordinates": [
          -16.2651837,
          13.2703138
        ]
      },
      "id": "node/2562844988"
    },
    {
      "type": "Feature",
      "properties": {
        "@id": "node/2562957719",
        "name": "Barajally Suba",
        "place": "village"
      },
      "geometry": {
        "type": "Point",
        "coordinates": [
          -14.9473605,
          13.5967466
        ]
      },
      "id": "node/2562957719"
    },
    {
      "type": "Feature",
      "properties": {
        "@id": "node/2562957721",
        "name": "Barajally Tenda",
        "place": "village",
        "wikidata": "Q2658811"
      },
      "geometry": {
        "type": "Point",
        "coordinates": [
          -14.946113,
          13.585184
        ]
      },
      "id": "node/2562957721"
    },
    {
      "type": "Feature",
      "properties": {
        "@id": "node/2562957723",
        "name": "Sukuta",
        "place": "village",
        "wikidata": "Q2364187"
      },
      "geometry": {
        "type": "Point",
        "coordinates": [
          -14.922997,
          13.616644
        ]
      },
      "id": "node/2562957723"
    },
    {
      "type": "Feature",
      "properties": {
        "@id": "node/2562957726",
        "name": "Tuba",
        "place": "village"
      },
      "geometry": {
        "type": "Point",
        "coordinates": [
          -14.9003008,
          13.6328896
        ]
      },
      "id": "node/2562957726"
    },
    {
      "type": "Feature",
      "properties": {
        "@id": "node/2566058400",
        "name": "Macca Saderr",
        "place": "village"
      },
      "geometry": {
        "type": "Point",
        "coordinates": [
          -14.8771427,
          13.7044884
        ]
      },
      "id": "node/2566058400"
    },
    {
      "type": "Feature",
      "properties": {
        "@id": "node/2566058405",
        "name": "Jungore Mustapha",
        "place": "village"
      },
      "geometry": {
        "type": "Point",
        "coordinates": [
          -14.8691914,
          13.7395551
        ]
      },
      "id": "node/2566058405"
    },
    {
      "type": "Feature",
      "properties": {
        "@id": "node/2566058411",
        "name": "Palol",
        "place": "village"
      },
      "geometry": {
        "type": "Point",
        "coordinates": [
          -14.8648186,
          13.7619822
        ]
      },
      "id": "node/2566058411"
    },
    {
      "type": "Feature",
      "properties": {
        "@id": "node/2566058477",
        "name": "Pallen Mandinka",
        "place": "village"
      },
      "geometry": {
        "type": "Point",
        "coordinates": [
          -14.8676707,
          13.6729777
        ]
      },
      "id": "node/2566058477"
    },
    {
      "type": "Feature",
      "properties": {
        "@id": "node/2566058520",
        "name": "Pallen Tarro",
        "place": "village"
      },
      "geometry": {
        "type": "Point",
        "coordinates": [
          -14.8571844,
          13.6708826
        ]
      },
      "id": "node/2566058520"
    },
    {
      "type": "Feature",
      "properties": {
        "@id": "node/2566058549",
        "name": "Kataba Sering Kah",
        "place": "village"
      },
      "geometry": {
        "type": "Point",
        "coordinates": [
          -14.8009039,
          13.6712106
        ]
      },
      "id": "node/2566058549"
    },
    {
      "type": "Feature",
      "properties": {
        "@id": "node/2566058724",
        "name": "Sunchu Garaba",
        "place": "village"
      },
      "geometry": {
        "type": "Point",
        "coordinates": [
          -14.8251582,
          13.67389
        ]
      },
      "id": "node/2566058724"
    },
    {
      "type": "Feature",
      "properties": {
        "@id": "node/2608521426",
        "name": "Koina",
        "place": "village",
        "population": "4089",
        "wikidata": "Q1778826",
        "wikipedia": "de:Koina"
      },
      "geometry": {
        "type": "Point",
        "coordinates": [
          -13.863798,
          13.47477
        ]
      },
      "id": "node/2608521426"
    },
    {
      "type": "Feature",
      "properties": {
        "@id": "node/2609123383",
        "name": "Kenaba",
        "place": "village"
      },
      "geometry": {
        "type": "Point",
        "coordinates": [
          -13.8562987,
          13.437398
        ]
      },
      "id": "node/2609123383"
    },
    {
      "type": "Feature",
      "properties": {
        "@id": "node/2609156658",
        "name": "Kebe Kunda",
        "place": "village"
      },
      "geometry": {
        "type": "Point",
        "coordinates": [
          -13.9669605,
          13.4323155
        ]
      },
      "id": "node/2609156658"
    },
    {
      "type": "Feature",
      "properties": {
        "@id": "node/2609169077",
        "name": "Sami Luta",
        "place": "village"
      },
      "geometry": {
        "type": "Point",
        "coordinates": [
          -13.9562413,
          13.4514362
        ]
      },
      "id": "node/2609169077"
    },
    {
      "type": "Feature",
      "properties": {
        "@id": "node/2609175308",
        "name": "Nema",
        "place": "village"
      },
      "geometry": {
        "type": "Point",
        "coordinates": [
          -13.982634,
          13.4397026
        ]
      },
      "id": "node/2609175308"
    },
    {
      "type": "Feature",
      "properties": {
        "@id": "node/2609183654",
        "name": "Kerewan",
        "place": "village"
      },
      "geometry": {
        "type": "Point",
        "coordinates": [
          -13.9885637,
          13.4071651
        ]
      },
      "id": "node/2609183654"
    },
    {
      "type": "Feature",
      "properties": {
        "@id": "node/2609195253",
        "name": "Kusun",
        "place": "village"
      },
      "geometry": {
        "type": "Point",
        "coordinates": [
          -13.920419,
          13.3850697
        ]
      },
      "id": "node/2609195253"
    },
    {
      "type": "Feature",
      "properties": {
        "@id": "node/2609290539",
        "name": "Karsi Kunda",
        "place": "village"
      },
      "geometry": {
        "type": "Point",
        "coordinates": [
          -13.8536237,
          13.387596
        ]
      },
      "id": "node/2609290539"
    },
    {
      "type": "Feature",
      "properties": {
        "@id": "node/2609291475",
        "name": "Song Kunda",
        "place": "village",
        "wikidata": "Q2301340"
      },
      "geometry": {
        "type": "Point",
        "coordinates": [
          -13.849075,
          13.378372
        ]
      },
      "id": "node/2609291475"
    },
    {
      "type": "Feature",
      "properties": {
        "@id": "node/2610205824",
        "name": "Perai",
        "place": "village",
        "wikidata": "Q1475266"
      },
      "geometry": {
        "type": "Point",
        "coordinates": [
          -14.033378,
          13.377079
        ]
      },
      "id": "node/2610205824"
    },
    {
      "type": "Feature",
      "properties": {
        "@id": "node/2611562335",
        "name": "Foday Kunda",
        "place": "village",
        "population": "840",
        "wikidata": "Q1347239",
        "wikipedia": "de:Foday Kunda"
      },
      "geometry": {
        "type": "Point",
        "coordinates": [
          -13.926456,
          13.497138
        ]
      },
      "id": "node/2611562335"
    },
    {
      "type": "Feature",
      "properties": {
        "@id": "node/2611566225",
        "name": "Brifu",
        "place": "village",
        "population": "1426",
        "wikidata": "Q915266",
        "wikipedia": "en:Brifu"
      },
      "geometry": {
        "type": "Point",
        "coordinates": [
          -13.9352,
          13.507331
        ]
      },
      "id": "node/2611566225"
    },
    {
      "type": "Feature",
      "properties": {
        "@id": "node/2611597680",
        "name": "Maka",
        "place": "village"
      },
      "geometry": {
        "type": "Point",
        "coordinates": [
          -13.9890498,
          13.5714286
        ]
      },
      "id": "node/2611597680"
    },
    {
      "type": "Feature",
      "properties": {
        "@id": "node/2611614936",
        "name": "Makamasire",
        "place": "village"
      },
      "geometry": {
        "type": "Point",
        "coordinates": [
          -13.9704329,
          13.5669573
        ]
      },
      "id": "node/2611614936"
    },
    {
      "type": "Feature",
      "properties": {
        "@id": "node/2611617750",
        "name": "Wellingara Yare",
        "place": "village"
      },
      "geometry": {
        "type": "Point",
        "coordinates": [
          -13.9951467,
          13.5433751
        ]
      },
      "id": "node/2611617750"
    },
    {
      "type": "Feature",
      "properties": {
        "@id": "node/2611623700",
        "name": "Koli Kunda",
        "place": "village"
      },
      "geometry": {
        "type": "Point",
        "coordinates": [
          -13.9896294,
          13.5274185
        ]
      },
      "id": "node/2611623700"
    },
    {
      "type": "Feature",
      "properties": {
        "@id": "node/2611645602",
        "alt_name": "Boro Kandakase, Boro Karida Kassy",
        "name": "Boro Kanda Kassy",
        "place": "village",
        "wikidata": "Q894032"
      },
      "geometry": {
        "type": "Point",
        "coordinates": [
          -14.028596,
          13.422725
        ]
      },
      "id": "node/2611645602"
    },
    {
      "type": "Feature",
      "properties": {
        "@id": "node/2611957045",
        "name": "Chamoi",
        "place": "village"
      },
      "geometry": {
        "type": "Point",
        "coordinates": [
          -14.115302,
          13.4605618
        ]
      },
      "id": "node/2611957045"
    },
    {
      "type": "Feature",
      "properties": {
        "@id": "node/2611957979",
        "name": "Barrow Kunda",
        "place": "village",
        "wikidata": "Q808985"
      },
      "geometry": {
        "type": "Point",
        "coordinates": [
          -14.117298,
          13.488179
        ]
      },
      "id": "node/2611957979"
    },
    {
      "type": "Feature",
      "properties": {
        "@id": "node/2611961064",
        "name": "Gunjur Kuta",
        "place": "village",
        "wikidata": "Q1554695"
      },
      "geometry": {
        "type": "Point",
        "coordinates": [
          -14.109903,
          13.532364
        ]
      },
      "id": "node/2611961064"
    },
    {
      "type": "Feature",
      "properties": {
        "@id": "node/2612016884",
        "name": "Dampha Kunda",
        "place": "village"
      },
      "geometry": {
        "type": "Point",
        "coordinates": [
          -14.1772354,
          13.3327087
        ]
      },
      "id": "node/2612016884"
    },
    {
      "type": "Feature",
      "properties": {
        "@id": "node/2612022500",
        "name": "Chamoi",
        "place": "village",
        "population": "746",
        "wikidata": "Q1060885",
        "wikipedia": "en:Chamoi"
      },
      "geometry": {
        "type": "Point",
        "coordinates": [
          -14.165738,
          13.318869
        ]
      },
      "id": "node/2612022500"
    },
    {
      "type": "Feature",
      "properties": {
        "@id": "node/2612248589",
        "name": "Kumbita",
        "place": "village"
      },
      "geometry": {
        "type": "Point",
        "coordinates": [
          -14.1740507,
          13.2665315
        ]
      },
      "id": "node/2612248589"
    },
    {
      "type": "Feature",
      "properties": {
        "@id": "node/2612325230",
        "name": "Mansajang Kunda",
        "place": "village",
        "wikidata": "Q1891066"
      },
      "geometry": {
        "type": "Point",
        "coordinates": [
          -14.209516,
          13.295947
        ]
      },
      "id": "node/2612325230"
    },
    {
      "type": "Feature",
      "properties": {
        "@id": "node/2614604997",
        "name": "Yuna",
        "place": "village"
      },
      "geometry": {
        "type": "Point",
        "coordinates": [
          -16.7266618,
          13.3470125
        ]
      },
      "id": "node/2614604997"
    },
    {
      "type": "Feature",
      "properties": {
        "@id": "node/2614703669",
        "name": "Madiana",
        "place": "village"
      },
      "geometry": {
        "type": "Point",
        "coordinates": [
          -16.7589668,
          13.3502257
        ]
      },
      "id": "node/2614703669"
    },
    {
      "type": "Feature",
      "properties": {
        "@id": "node/2614773407",
        "name": "Bartukunku",
        "place": "village"
      },
      "geometry": {
        "type": "Point",
        "coordinates": [
          -16.7990926,
          13.3267803
        ]
      },
      "id": "node/2614773407"
    },
    {
      "type": "Feature",
      "properties": {
        "@id": "node/2614992383",
        "name": "Madinari",
        "place": "village"
      },
      "geometry": {
        "type": "Point",
        "coordinates": [
          -16.6032025,
          13.373673
        ]
      },
      "id": "node/2614992383"
    },
    {
      "type": "Feature",
      "properties": {
        "@id": "node/2616149100",
        "name": "Sareh",
        "place": "village"
      },
      "geometry": {
        "type": "Point",
        "coordinates": [
          -16.6857232,
          13.4064635
        ]
      },
      "id": "node/2616149100"
    },
    {
      "type": "Feature",
      "properties": {
        "@id": "node/2616274851",
        "name": "Kerevan",
        "place": "village"
      },
      "geometry": {
        "type": "Point",
        "coordinates": [
          -16.6272514,
          13.3576182
        ]
      },
      "id": "node/2616274851"
    },
    {
      "type": "Feature",
      "properties": {
        "@id": "node/2616276297",
        "name": "Galowya",
        "place": "village"
      },
      "geometry": {
        "type": "Point",
        "coordinates": [
          -16.6151911,
          13.3304753
        ]
      },
      "id": "node/2616276297"
    },
    {
      "type": "Feature",
      "properties": {
        "@id": "node/2616276298",
        "name": "Sameh",
        "place": "village"
      },
      "geometry": {
        "type": "Point",
        "coordinates": [
          -16.6237098,
          13.3318434
        ]
      },
      "id": "node/2616276298"
    },
    {
      "type": "Feature",
      "properties": {
        "@id": "node/2616278543",
        "name": "Bafuloto",
        "place": "village",
        "wikidata": "Q799796"
      },
      "geometry": {
        "type": "Point",
        "coordinates": [
          -16.629546,
          13.313887
        ]
      },
      "id": "node/2616278543"
    },
    {
      "type": "Feature",
      "properties": {
        "@id": "node/2616287759",
        "alt_name": "Tuba Kuta, Tuba Koto, Tuba",
        "name": "Tubakuta",
        "place": "village",
        "population": "1349",
        "wikidata": "Q2458839",
        "wikipedia": "de:Tubakuta"
      },
      "geometry": {
        "type": "Point",
        "coordinates": [
          -16.594979,
          13.255089
        ]
      },
      "id": "node/2616287759"
    },
    {
      "type": "Feature",
      "properties": {
        "@id": "node/2616295747",
        "name": "Bassori",
        "place": "village",
        "population": "2701",
        "wikidata": "Q810538",
        "wikipedia": "de:Bassori"
      },
      "geometry": {
        "type": "Point",
        "coordinates": [
          -16.590125,
          13.228172
        ]
      },
      "id": "node/2616295747"
    },
    {
      "type": "Feature",
      "properties": {
        "@id": "node/2616319621",
        "name": "Manduar",
        "place": "village",
        "population": "2255",
        "wikidata": "Q1671057",
        "wikipedia": "de:Manduar"
      },
      "geometry": {
        "type": "Point",
        "coordinates": [
          -16.638413,
          13.248228
        ]
      },
      "id": "node/2616319621"
    },
    {
      "type": "Feature",
      "properties": {
        "@id": "node/2616324178",
        "name": "Penyem",
        "place": "village",
        "population": "1126",
        "wikidata": "Q2069540",
        "wikipedia": "de:Penyem"
      },
      "geometry": {
        "type": "Point",
        "coordinates": [
          -16.624418,
          13.217272
        ]
      },
      "id": "node/2616324178"
    },
    {
      "type": "Feature",
      "properties": {
        "@id": "node/2616341566",
        "name": "Busura",
        "place": "village"
      },
      "geometry": {
        "type": "Point",
        "coordinates": [
          -16.6308973,
          13.190422
        ]
      },
      "id": "node/2616341566"
    },
    {
      "type": "Feature",
      "properties": {
        "@id": "node/2616666023",
        "name": "Jiboro",
        "place": "village",
        "population": "1662",
        "wikidata": "Q1688917",
        "wikipedia": "de:Jiboro"
      },
      "geometry": {
        "type": "Point",
        "coordinates": [
          -16.575162,
          13.176065
        ]
      },
      "id": "node/2616666023"
    },
    {
      "type": "Feature",
      "properties": {
        "@id": "node/2617484281",
        "name": "Essau",
        "place": "village",
        "population": "6640",
        "wikidata": "Q1368528",
        "wikipedia": "en:Essau"
      },
      "geometry": {
        "type": "Point",
        "coordinates": [
          -16.535294,
          13.483641
        ]
      },
      "id": "node/2617484281"
    },
    {
      "type": "Feature",
      "properties": {
        "@id": "node/2617706702",
        "alt_name": "Amdallai",
        "name": "Amdalai",
        "place": "village",
        "population": "1260",
        "wikidata": "Q460354",
        "wikipedia": "en:Amdalai"
      },
      "geometry": {
        "type": "Point",
        "coordinates": [
          -16.422254,
          13.588228
        ]
      },
      "id": "node/2617706702"
    },
    {
      "type": "Feature",
      "properties": {
        "@id": "node/2617758506",
        "alt_name": "Fass Njaga Choi",
        "name": "Fass",
        "place": "village",
        "population": "3020",
        "wikidata": "Q1397510",
        "wikipedia": "de:Fass (North Bank Region)"
      },
      "geometry": {
        "type": "Point",
        "coordinates": [
          -16.42609,
          13.564147
        ]
      },
      "id": "node/2617758506"
    },
    {
      "type": "Feature",
      "properties": {
        "@id": "node/2674575335",
        "name": "Sika",
        "place": "village",
        "wikidata": "Q1255919"
      },
      "geometry": {
        "type": "Point",
        "coordinates": [
          -16.344978,
          13.354626
        ]
      },
      "id": "node/2674575335"
    },
    {
      "type": "Feature",
      "properties": {
        "@id": "node/2674615037",
        "name": "Bantang Killing",
        "place": "village"
      },
      "geometry": {
        "type": "Point",
        "coordinates": [
          -16.4128325,
          13.3447861
        ]
      },
      "id": "node/2674615037"
    },
    {
      "type": "Feature",
      "properties": {
        "@id": "node/2674616920",
        "name": "Lamin",
        "place": "village",
        "wikidata": "Q629571"
      },
      "geometry": {
        "type": "Point",
        "coordinates": [
          -16.431562,
          13.351965
        ]
      },
      "id": "node/2674616920"
    },
    {
      "type": "Feature",
      "properties": {
        "@id": "node/2675412652",
        "name": "Kerr Pateh Kore",
        "place": "village"
      },
      "geometry": {
        "type": "Point",
        "coordinates": [
          -15.9703091,
          13.5848583
        ]
      },
      "id": "node/2675412652"
    },
    {
      "type": "Feature",
      "properties": {
        "@id": "node/2679589043",
        "name": "Bakalarr",
        "place": "village"
      },
      "geometry": {
        "type": "Point",
        "coordinates": [
          -16.4249573,
          13.4218992
        ]
      },
      "id": "node/2679589043"
    },
    {
      "type": "Feature",
      "properties": {
        "@id": "node/2880296556",
        "name": "Gambissara",
        "place": "village",
        "wikidata": "Q1492981"
      },
      "geometry": {
        "type": "Point",
        "coordinates": [
          -14.310814,
          13.238248
        ]
      },
      "id": "node/2880296556"
    },
    {
      "type": "Feature",
      "properties": {
        "@id": "node/2880296559",
        "place": "village"
      },
      "geometry": {
        "type": "Point",
        "coordinates": [
          -14.6380565,
          13.3455203
        ]
      },
      "id": "node/2880296559"
    },
    {
      "type": "Feature",
      "properties": {
        "@id": "node/2880296560",
        "place": "village"
      },
      "geometry": {
        "type": "Point",
        "coordinates": [
          -14.6585555,
          13.3469237
        ]
      },
      "id": "node/2880296560"
    },
    {
      "type": "Feature",
      "properties": {
        "@id": "node/2880296561",
        "place": "village"
      },
      "geometry": {
        "type": "Point",
        "coordinates": [
          -14.6730666,
          13.3517718
        ]
      },
      "id": "node/2880296561"
    },
    {
      "type": "Feature",
      "properties": {
        "@id": "node/2880296572",
        "place": "village"
      },
      "geometry": {
        "type": "Point",
        "coordinates": [
          -14.6116332,
          13.3537464
        ]
      },
      "id": "node/2880296572"
    },
    {
      "type": "Feature",
      "properties": {
        "@id": "node/2880296596",
        "place": "village"
      },
      "geometry": {
        "type": "Point",
        "coordinates": [
          -14.6529326,
          13.3597984
        ]
      },
      "id": "node/2880296596"
    },
    {
      "type": "Feature",
      "properties": {
        "@id": "node/2880300119",
        "place": "village"
      },
      "geometry": {
        "type": "Point",
        "coordinates": [
          -14.7035748,
          13.3632962
        ]
      },
      "id": "node/2880300119"
    },
    {
      "type": "Feature",
      "properties": {
        "@id": "node/2880300173",
        "place": "village"
      },
      "geometry": {
        "type": "Point",
        "coordinates": [
          -14.6099878,
          13.3691078
        ]
      },
      "id": "node/2880300173"
    },
    {
      "type": "Feature",
      "properties": {
        "@id": "node/2880300199",
        "place": "village"
      },
      "geometry": {
        "type": "Point",
        "coordinates": [
          -14.7332288,
          13.377442
        ]
      },
      "id": "node/2880300199"
    },
    {
      "type": "Feature",
      "properties": {
        "@id": "node/2880300318",
        "place": "village"
      },
      "geometry": {
        "type": "Point",
        "coordinates": [
          -14.6414989,
          13.384785
        ]
      },
      "id": "node/2880300318"
    },
    {
      "type": "Feature",
      "properties": {
        "@id": "node/2880300319",
        "place": "village"
      },
      "geometry": {
        "type": "Point",
        "coordinates": [
          -14.7017663,
          13.3853196
        ]
      },
      "id": "node/2880300319"
    },
    {
      "type": "Feature",
      "properties": {
        "@id": "node/2880300348",
        "place": "village"
      },
      "geometry": {
        "type": "Point",
        "coordinates": [
          -14.7250077,
          13.395061
        ]
      },
      "id": "node/2880300348"
    },
    {
      "type": "Feature",
      "properties": {
        "@id": "node/2880300504",
        "place": "village"
      },
      "geometry": {
        "type": "Point",
        "coordinates": [
          -14.7256877,
          13.4010139
        ]
      },
      "id": "node/2880300504"
    },
    {
      "type": "Feature",
      "properties": {
        "@id": "node/2880300510",
        "place": "village"
      },
      "geometry": {
        "type": "Point",
        "coordinates": [
          -14.5992912,
          13.4018607
        ]
      },
      "id": "node/2880300510"
    },
    {
      "type": "Feature",
      "properties": {
        "@id": "node/2880300522",
        "place": "village"
      },
      "geometry": {
        "type": "Point",
        "coordinates": [
          -14.6699166,
          13.4026812
        ]
      },
      "id": "node/2880300522"
    },
    {
      "type": "Feature",
      "properties": {
        "@id": "node/2880300534",
        "place": "village"
      },
      "geometry": {
        "type": "Point",
        "coordinates": [
          -14.745344,
          13.4033589
        ]
      },
      "id": "node/2880300534"
    },
    {
      "type": "Feature",
      "properties": {
        "@id": "node/2880300572",
        "place": "village"
      },
      "geometry": {
        "type": "Point",
        "coordinates": [
          -14.6641472,
          13.4072731
        ]
      },
      "id": "node/2880300572"
    },
    {
      "type": "Feature",
      "properties": {
        "@id": "node/2880300585",
        "place": "village"
      },
      "geometry": {
        "type": "Point",
        "coordinates": [
          -14.5945871,
          13.4086188
        ]
      },
      "id": "node/2880300585"
    },
    {
      "type": "Feature",
      "properties": {
        "@id": "node/2880300807",
        "place": "village"
      },
      "geometry": {
        "type": "Point",
        "coordinates": [
          -14.6047009,
          13.4092452
        ]
      },
      "id": "node/2880300807"
    },
    {
      "type": "Feature",
      "properties": {
        "@id": "node/2880300831",
        "place": "village"
      },
      "geometry": {
        "type": "Point",
        "coordinates": [
          -14.7064784,
          13.4121837
        ]
      },
      "id": "node/2880300831"
    },
    {
      "type": "Feature",
      "properties": {
        "@id": "node/2880301146",
        "place": "village"
      },
      "geometry": {
        "type": "Point",
        "coordinates": [
          -14.6027044,
          13.4226862
        ]
      },
      "id": "node/2880301146"
    },
    {
      "type": "Feature",
      "properties": {
        "@id": "node/2880301160",
        "place": "village"
      },
      "geometry": {
        "type": "Point",
        "coordinates": [
          -14.5890551,
          13.4248709
        ]
      },
      "id": "node/2880301160"
    },
    {
      "type": "Feature",
      "properties": {
        "@id": "node/2880301318",
        "name": "Kerewan Dumbokoto",
        "place": "village"
      },
      "geometry": {
        "type": "Point",
        "coordinates": [
          -14.5933482,
          13.443623
        ]
      },
      "id": "node/2880301318"
    },
    {
      "type": "Feature",
      "properties": {
        "@id": "node/2880301359",
        "place": "village"
      },
      "geometry": {
        "type": "Point",
        "coordinates": [
          -14.5912386,
          13.4565109
        ]
      },
      "id": "node/2880301359"
    },
    {
      "type": "Feature",
      "properties": {
        "@id": "node/2977426941",
        "name": "Jiffarong",
        "place": "village",
        "wikidata": "Q1688943"
      },
      "geometry": {
        "type": "Point",
        "coordinates": [
          -15.868,
          13.300777
        ]
      },
      "id": "node/2977426941"
    },
    {
      "type": "Feature",
      "properties": {
        "@id": "node/2977426951",
        "place": "village"
      },
      "geometry": {
        "type": "Point",
        "coordinates": [
          -16.1865795,
          13.3028231
        ]
      },
      "id": "node/2977426951"
    },
    {
      "type": "Feature",
      "properties": {
        "@id": "node/2977426972",
        "place": "village"
      },
      "geometry": {
        "type": "Point",
        "coordinates": [
          -16.0862154,
          13.3110056
        ]
      },
      "id": "node/2977426972"
    },
    {
      "type": "Feature",
      "properties": {
        "@id": "node/2977426988",
        "place": "village"
      },
      "geometry": {
        "type": "Point",
        "coordinates": [
          -15.8857526,
          13.3121459
        ]
      },
      "id": "node/2977426988"
    },
    {
      "type": "Feature",
      "properties": {
        "@id": "node/2977426995",
        "place": "village"
      },
      "geometry": {
        "type": "Point",
        "coordinates": [
          -15.9341065,
          13.313041
        ]
      },
      "id": "node/2977426995"
    },
    {
      "type": "Feature",
      "properties": {
        "@id": "node/2977427029",
        "place": "village"
      },
      "geometry": {
        "type": "Point",
        "coordinates": [
          -16.180267,
          13.3167451
        ]
      },
      "id": "node/2977427029"
    },
    {
      "type": "Feature",
      "properties": {
        "@id": "node/2977439678",
        "name": "Brikana",
        "place": "village"
      },
      "geometry": {
        "type": "Point",
        "coordinates": [
          -15.9216338,
          13.3219731
        ]
      },
      "id": "node/2977439678"
    },
    {
      "type": "Feature",
      "properties": {
        "@id": "node/2977439714",
        "name": "Burong",
        "place": "village",
        "wikidata": "Q1016868"
      },
      "geometry": {
        "type": "Point",
        "coordinates": [
          -16.178434,
          13.327455
        ]
      },
      "id": "node/2977439714"
    },
    {
      "type": "Feature",
      "properties": {
        "@id": "node/2977439886",
        "name": "Keneba",
        "place": "village",
        "wikidata": "Q1738721"
      },
      "geometry": {
        "type": "Point",
        "coordinates": [
          -16.008987,
          13.331703
        ]
      },
      "id": "node/2977439886"
    },
    {
      "type": "Feature",
      "properties": {
        "@id": "node/2977439908",
        "place": "village"
      },
      "geometry": {
        "type": "Point",
        "coordinates": [
          -15.9566737,
          13.3338748
        ]
      },
      "id": "node/2977439908"
    },
    {
      "type": "Feature",
      "properties": {
        "@id": "node/2977439966",
        "name": "Kuli Kunda",
        "place": "village"
      },
      "geometry": {
        "type": "Point",
        "coordinates": [
          -15.9213206,
          13.3389071
        ]
      },
      "id": "node/2977439966"
    },
    {
      "type": "Feature",
      "properties": {
        "@id": "node/2977439982",
        "place": "village"
      },
      "geometry": {
        "type": "Point",
        "coordinates": [
          -16.1051669,
          13.3411481
        ]
      },
      "id": "node/2977439982"
    },
    {
      "type": "Feature",
      "properties": {
        "@id": "node/2977440142",
        "name": "Jali",
        "place": "village",
        "wikidata": "Q1669376"
      },
      "geometry": {
        "type": "Point",
        "coordinates": [
          -15.967858,
          13.351869
        ]
      },
      "id": "node/2977440142"
    },
    {
      "type": "Feature",
      "properties": {
        "@id": "node/2977440177",
        "name": "Karantaba",
        "place": "village",
        "wikidata": "Q1728958"
      },
      "geometry": {
        "type": "Point",
        "coordinates": [
          -16.153646,
          13.352814
        ]
      },
      "id": "node/2977440177"
    },
    {
      "type": "Feature",
      "properties": {
        "@id": "node/2977440191",
        "name": "Manduar",
        "place": "village"
      },
      "geometry": {
        "type": "Point",
        "coordinates": [
          -16.0692358,
          13.3531858
        ]
      },
      "id": "node/2977440191"
    },
    {
      "type": "Feature",
      "properties": {
        "@id": "node/2977440363",
        "place": "village"
      },
      "geometry": {
        "type": "Point",
        "coordinates": [
          -16.1705005,
          13.3584739
        ]
      },
      "id": "node/2977440363"
    },
    {
      "type": "Feature",
      "properties": {
        "@id": "node/2977440388",
        "name": "Janneh Kunda",
        "place": "village",
        "wikidata": "Q1682891"
      },
      "geometry": {
        "type": "Point",
        "coordinates": [
          -16.137689,
          13.380027
        ]
      },
      "id": "node/2977440388"
    },
    {
      "type": "Feature",
      "properties": {
        "@id": "node/2977440409",
        "name": "Joli",
        "place": "village"
      },
      "geometry": {
        "type": "Point",
        "coordinates": [
          -16.0947149,
          13.4006362
        ]
      },
      "id": "node/2977440409"
    },
    {
      "type": "Feature",
      "properties": {
        "@id": "node/2977440458",
        "name": "Kemoto",
        "place": "village",
        "wikidata": "Q1738521"
      },
      "geometry": {
        "type": "Point",
        "coordinates": [
          -16.1464,
          13.432534
        ]
      },
      "id": "node/2977440458"
    },
    {
      "type": "Feature",
      "properties": {
        "@id": "node/2977598870",
        "name": "Wassadu",
        "place": "village"
      },
      "geometry": {
        "type": "Point",
        "coordinates": [
          -14.0229692,
          13.3366846
        ]
      },
      "id": "node/2977598870"
    },
    {
      "type": "Feature",
      "properties": {
        "@id": "node/2977598916",
        "name": "N'Dimba",
        "place": "village"
      },
      "geometry": {
        "type": "Point",
        "coordinates": [
          -14.0285654,
          13.3413196
        ]
      },
      "id": "node/2977598916"
    },
    {
      "type": "Feature",
      "properties": {
        "@id": "node/2977598960",
        "place": "village"
      },
      "geometry": {
        "type": "Point",
        "coordinates": [
          -14.0181841,
          13.3599352
        ]
      },
      "id": "node/2977598960"
    },
    {
      "type": "Feature",
      "properties": {
        "@id": "node/2977598972",
        "name": "Sare Alpha",
        "place": "village",
        "wikidata": "Q1410589"
      },
      "geometry": {
        "type": "Point",
        "coordinates": [
          -13.981034,
          13.361174
        ]
      },
      "id": "node/2977598972"
    },
    {
      "type": "Feature",
      "properties": {
        "@id": "node/2977598986",
        "place": "village"
      },
      "geometry": {
        "type": "Point",
        "coordinates": [
          -13.9882618,
          13.3659725
        ]
      },
      "id": "node/2977598986"
    },
    {
      "type": "Feature",
      "properties": {
        "@id": "node/2977598990",
        "name": "Suduwol",
        "place": "village"
      },
      "geometry": {
        "type": "Point",
        "coordinates": [
          -13.9707326,
          13.3688804
        ]
      },
      "id": "node/2977598990"
    },
    {
      "type": "Feature",
      "properties": {
        "@id": "node/2977598996",
        "place": "village"
      },
      "geometry": {
        "type": "Point",
        "coordinates": [
          -14.0112195,
          13.3771972
        ]
      },
      "id": "node/2977598996"
    },
    {
      "type": "Feature",
      "properties": {
        "@id": "node/2977599030",
        "place": "village"
      },
      "geometry": {
        "type": "Point",
        "coordinates": [
          -13.8719507,
          13.397
        ]
      },
      "id": "node/2977599030"
    },
    {
      "type": "Feature",
      "properties": {
        "@id": "node/2977599031",
        "name": "Kulari",
        "place": "village"
      },
      "geometry": {
        "type": "Point",
        "coordinates": [
          -14.0821746,
          13.4022837
        ]
      },
      "id": "node/2977599031"
    },
    {
      "type": "Feature",
      "properties": {
        "@id": "node/2977599032",
        "place": "village"
      },
      "geometry": {
        "type": "Point",
        "coordinates": [
          -13.8681831,
          13.4029623
        ]
      },
      "id": "node/2977599032"
    },
    {
      "type": "Feature",
      "properties": {
        "@id": "node/2977599238",
        "place": "village"
      },
      "geometry": {
        "type": "Point",
        "coordinates": [
          -13.8376867,
          13.4197885
        ]
      },
      "id": "node/2977599238"
    },
    {
      "type": "Feature",
      "properties": {
        "@id": "node/2977599239",
        "place": "village"
      },
      "geometry": {
        "type": "Point",
        "coordinates": [
          -13.8311008,
          13.4199084
        ]
      },
      "id": "node/2977599239"
    },
    {
      "type": "Feature",
      "properties": {
        "@id": "node/2977599251",
        "place": "village"
      },
      "geometry": {
        "type": "Point",
        "coordinates": [
          -13.8445852,
          13.4234577
        ]
      },
      "id": "node/2977599251"
    },
    {
      "type": "Feature",
      "properties": {
        "@id": "node/2977599255",
        "place": "village"
      },
      "geometry": {
        "type": "Point",
        "coordinates": [
          -13.8631069,
          13.4244464
        ]
      },
      "id": "node/2977599255"
    },
    {
      "type": "Feature",
      "properties": {
        "@id": "node/2977599257",
        "place": "village"
      },
      "geometry": {
        "type": "Point",
        "coordinates": [
          -13.8362048,
          13.4249729
        ]
      },
      "id": "node/2977599257"
    },
    {
      "type": "Feature",
      "properties": {
        "@id": "node/2977599263",
        "place": "village"
      },
      "geometry": {
        "type": "Point",
        "coordinates": [
          -13.8485442,
          13.4312296
        ]
      },
      "id": "node/2977599263"
    },
    {
      "type": "Feature",
      "properties": {
        "@id": "node/2977599271",
        "place": "village"
      },
      "geometry": {
        "type": "Point",
        "coordinates": [
          -13.8490723,
          13.4342186
        ]
      },
      "id": "node/2977599271"
    },
    {
      "type": "Feature",
      "properties": {
        "@id": "node/2978992468",
        "place": "village"
      },
      "geometry": {
        "type": "Point",
        "coordinates": [
          -15.745692,
          13.35285
        ]
      },
      "id": "node/2978992468"
    },
    {
      "type": "Feature",
      "properties": {
        "@id": "node/2978992504",
        "name": "Madina",
        "place": "village"
      },
      "geometry": {
        "type": "Point",
        "coordinates": [
          -15.7604598,
          13.3553978
        ]
      },
      "id": "node/2978992504"
    },
    {
      "type": "Feature",
      "properties": {
        "@id": "node/2978992848",
        "place": "village"
      },
      "geometry": {
        "type": "Point",
        "coordinates": [
          -15.591673,
          13.3601342
        ]
      },
      "id": "node/2978992848"
    },
    {
      "type": "Feature",
      "properties": {
        "@id": "node/2978992887",
        "place": "village"
      },
      "geometry": {
        "type": "Point",
        "coordinates": [
          -15.7145507,
          13.3620656
        ]
      },
      "id": "node/2978992887"
    },
    {
      "type": "Feature",
      "properties": {
        "@id": "node/2978992917",
        "place": "village"
      },
      "geometry": {
        "type": "Point",
        "coordinates": [
          -15.6522155,
          13.36341
        ]
      },
      "id": "node/2978992917"
    },
    {
      "type": "Feature",
      "properties": {
        "@id": "node/2978993040",
        "name": "Tabanani",
        "place": "village"
      },
      "geometry": {
        "type": "Point",
        "coordinates": [
          -15.7716928,
          13.3640321
        ]
      },
      "id": "node/2978993040"
    },
    {
      "type": "Feature",
      "properties": {
        "@id": "node/2978993090",
        "place": "village"
      },
      "geometry": {
        "type": "Point",
        "coordinates": [
          -15.6017689,
          13.365732
        ]
      },
      "id": "node/2978993090"
    },
    {
      "type": "Feature",
      "properties": {
        "@id": "node/2978993256",
        "place": "village"
      },
      "geometry": {
        "type": "Point",
        "coordinates": [
          -15.693966,
          13.367752
        ]
      },
      "id": "node/2978993256"
    },
    {
      "type": "Feature",
      "properties": {
        "@id": "node/2978993320",
        "place": "village"
      },
      "geometry": {
        "type": "Point",
        "coordinates": [
          -15.7933862,
          13.3695598
        ]
      },
      "id": "node/2978993320"
    },
    {
      "type": "Feature",
      "properties": {
        "@id": "node/2978993474",
        "place": "village"
      },
      "geometry": {
        "type": "Point",
        "coordinates": [
          -15.5714089,
          13.3722825
        ]
      },
      "id": "node/2978993474"
    },
    {
      "type": "Feature",
      "properties": {
        "@id": "node/2978993529",
        "place": "village"
      },
      "geometry": {
        "type": "Point",
        "coordinates": [
          -15.6896414,
          13.3751541
        ]
      },
      "id": "node/2978993529"
    },
    {
      "type": "Feature",
      "properties": {
        "@id": "node/2978993590",
        "place": "village"
      },
      "geometry": {
        "type": "Point",
        "coordinates": [
          -15.5974408,
          13.377372
        ]
      },
      "id": "node/2978993590"
    },
    {
      "type": "Feature",
      "properties": {
        "@id": "node/2978993628",
        "name": "Sibito",
        "place": "village"
      },
      "geometry": {
        "type": "Point",
        "coordinates": [
          -15.7322939,
          13.3786281
        ]
      },
      "id": "node/2978993628"
    },
    {
      "type": "Feature",
      "properties": {
        "@id": "node/2978993731",
        "place": "village"
      },
      "geometry": {
        "type": "Point",
        "coordinates": [
          -15.568056,
          13.3834149
        ]
      },
      "id": "node/2978993731"
    },
    {
      "type": "Feature",
      "properties": {
        "@id": "node/2978993776",
        "place": "village"
      },
      "geometry": {
        "type": "Point",
        "coordinates": [
          -15.6296449,
          13.3853432
        ]
      },
      "id": "node/2978993776"
    },
    {
      "type": "Feature",
      "properties": {
        "@id": "node/2978993805",
        "place": "village"
      },
      "geometry": {
        "type": "Point",
        "coordinates": [
          -15.5616463,
          13.386276
        ]
      },
      "id": "node/2978993805"
    },
    {
      "type": "Feature",
      "properties": {
        "@id": "node/2978993936",
        "place": "village"
      },
      "geometry": {
        "type": "Point",
        "coordinates": [
          -15.6700995,
          13.3937508
        ]
      },
      "id": "node/2978993936"
    },
    {
      "type": "Feature",
      "properties": {
        "@id": "node/2978993972",
        "place": "village"
      },
      "geometry": {
        "type": "Point",
        "coordinates": [
          -15.6966161,
          13.3948189
        ]
      },
      "id": "node/2978993972"
    },
    {
      "type": "Feature",
      "properties": {
        "@id": "node/2978994069",
        "name": "Bumari",
        "place": "village"
      },
      "geometry": {
        "type": "Point",
        "coordinates": [
          -15.782508,
          13.3991432
        ]
      },
      "id": "node/2978994069"
    },
    {
      "type": "Feature",
      "properties": {
        "@id": "node/2978994110",
        "name": "Kwinella",
        "place": "village",
        "wikidata": "Q1794955"
      },
      "geometry": {
        "type": "Point",
        "coordinates": [
          -15.797691,
          13.395272
        ]
      },
      "id": "node/2978994110"
    },
    {
      "type": "Feature",
      "properties": {
        "@id": "node/2978994144",
        "name": "Sare Pate",
        "place": "village"
      },
      "geometry": {
        "type": "Point",
        "coordinates": [
          -15.6648825,
          13.4029378
        ]
      },
      "id": "node/2978994144"
    },
    {
      "type": "Feature",
      "properties": {
        "@id": "node/2978994212",
        "place": "village"
      },
      "geometry": {
        "type": "Point",
        "coordinates": [
          -15.5576488,
          13.4051973
        ]
      },
      "id": "node/2978994212"
    },
    {
      "type": "Feature",
      "properties": {
        "@id": "node/2978994227",
        "name": "Bambako",
        "place": "village"
      },
      "geometry": {
        "type": "Point",
        "coordinates": [
          -15.7679539,
          13.405707
        ]
      },
      "id": "node/2978994227"
    },
    {
      "type": "Feature",
      "properties": {
        "@id": "node/2978994275",
        "name": "Sare Babu",
        "place": "village"
      },
      "geometry": {
        "type": "Point",
        "coordinates": [
          -15.6526607,
          13.4069776
        ]
      },
      "id": "node/2978994275"
    },
    {
      "type": "Feature",
      "properties": {
        "@id": "node/2978994295",
        "place": "village"
      },
      "geometry": {
        "type": "Point",
        "coordinates": [
          -15.5480938,
          13.4072515
        ]
      },
      "id": "node/2978994295"
    },
    {
      "type": "Feature",
      "properties": {
        "@id": "node/2978994320",
        "name": "Laibe Kunda",
        "place": "village"
      },
      "geometry": {
        "type": "Point",
        "coordinates": [
          -15.6738643,
          13.4077533
        ]
      },
      "id": "node/2978994320"
    },
    {
      "type": "Feature",
      "properties": {
        "@id": "node/2978994356",
        "name": "Kaiaf",
        "place": "village",
        "wikidata": "Q1721371"
      },
      "geometry": {
        "type": "Point",
        "coordinates": [
          -15.608159,
          13.409234
        ]
      },
      "id": "node/2978994356"
    },
    {
      "type": "Feature",
      "properties": {
        "@id": "node/2978994399",
        "name": "Kolior Suka",
        "place": "village"
      },
      "geometry": {
        "type": "Point",
        "coordinates": [
          -15.6696848,
          13.4109136
        ]
      },
      "id": "node/2978994399"
    },