{"type": "FeatureCollection", "features": [
{"type": "Feature", "geometry": {"type": "Point", "coordinates": [69.1725, 34.5289]}, "properties": {"Country Name": "Afghanistan", "City Name": "Kabul", "Population 1990": "1549320", "Population 2000": 2401109.0, "Population 2010": 3722320, "%Growth Rate 1990-2001": 4.38, "%Growth Rate 2000-2011": 4.38, "Source": "UN Population Division"}}
,{"type": "Feature", "geometry": {"type": "Point", "coordinates": [3.042, 36.7525]}, "properties": {"Country Name": "Algeria", "City Name": "Algiers", "Population 1990": "1797068", "Population 2000": 2140577.0, "Population 2010": 2432023, "%Growth Rate 1990-2001": 1.75, "%Growth Rate 2000-2011": 1.28, "Source": "UN Population Division"}}
,{"type": "Feature", "geometry": {"type": "Point", "coordinates": [8.1242, 35.4042]}, "properties": {"Country Name": "Algeria", "City Name": "Tebessa ", "Population 1990": "119245", "Population 2000": 160945.0, "Population 2010": 205195, "%Growth Rate 1990-2001": 3.0, "%Growth Rate 2000-2011": 2.43, "Source": "UN Population Division"}}
,{"type": "Feature", "geometry": {"type": "Point", "coordinates": [13.2343, -8.8368]}, "properties": {"Country Name": "Angola", "City Name": "Luanda", "Population 1990": "1390240", "Population 2000": 2591388.0, "Population 2010": 4508434, "%Growth Rate 1990-2001": 6.23, "%Growth Rate 2000-2011": 5.54, "Source": "UN Population Division"}}
,{"type": "Feature", "geometry": {"type": "Point", "coordinates": [-58.4004, -34.6051]}, "properties": {"Country Name": "Argentina", "City Name": "Buenos Aires", "Population 1990": "10513284", "Population 2000": 12406780.0, "Population 2010": 14245871, "%Growth Rate 1990-2001": 1.66, "%Growth Rate 2000-2011": 1.38, "Source": "UN Population Division"}}
,{"type": "Feature", "geometry": {"type": "Point", "coordinates": [-64.1811, -31.4135]}, "properties": {"Country Name": "Argentina", "City Name": "Cordoba", "Population 1990": "1200168", "Population 2000": 1347561.0, "Population 2010": 1459268, "%Growth Rate 1990-2001": 1.16, "%Growth Rate 2000-2011": 0.8, "Source": "UN Population Division"}}
,{"type": "Feature", "geometry": {"type": "Point", "coordinates": [151.2073, -33.8679]}, "properties": {"Country Name": "Australia", "City Name": "Sydney", "Population 1990": "3631940", "Population 2000": 4052499.0, "Population 2010": 4364380, "%Growth Rate 1990-2001": 1.1, "%Growth Rate 2000-2011": 0.74, "Source": "UN Population Division"}}
,{"type": "Feature", "geometry": {"type": "Point", "coordinates": [16.3707, 48.2064]}, "properties": {"Country Name": "Austria", "City Name": "Vienna", "Population 1990": "1539106", "Population 2000": 1549227.0, "Population 2010": 1699888, "%Growth Rate 1990-2001": 0.07, "%Growth Rate 2000-2011": 0.93, "Source": "UN Population Division"}}
,{"type": "Feature", "geometry": {"type": "Point", "coordinates": [49.892, 40.3777]}, "properties": {"Country Name": "Azerbaijan", "City Name": "Baku", "Population 1990": "1733452", "Population 2000": 1805977.0, "Population 2010": 2061843, "%Growth Rate 1990-2001": 0.41, "%Growth Rate 2000-2011": 1.33, "Source": "UN Population Division"}}
,{"type": "Feature", "geometry": {"type": "Point", "coordinates": [90.4074, 23.7104]}, "properties": {"Country Name": "Bangladesh", "City Name": "Dhaka", "Population 1990": "6620697", "Population 2000": 10284947.0, "Population 2010": 14730537, "%Growth Rate 1990-2001": 4.4, "%Growth Rate 2000-2011": 3.59, "Source": "UN Population Division"}}
,{"type": "Feature", "geometry": {"type": "Point", "coordinates": [88.6, 24.3667]}, "properties": {"Country Name": "Bangladesh", "City Name": "Rajshahi", "Population 1990": "520755", "Population 2000": 678334.0, "Population 2010": 785525, "%Growth Rate 1990-2001": 2.64, "%Growth Rate 2000-2011": 1.47, "Source": "UN Population Division"}}
,{"type": "Feature", "geometry": {"type": "Point", "coordinates": [88.8917, 25.7777]}, "properties": {"Country Name": "Bangladesh", "City Name": "Saidpur", "Population 1990": "106082", "Population 2000": 118684.0, "Population 2010": 129449, "%Growth Rate 1990-2001": 1.12, "%Growth Rate 2000-2011": 0.87, "Source": "UN Population Division"}}
,{"type": "Feature", "geometry": {"type": "Point", "coordinates": [30.9754, 52.4345]}, "properties": {"Country Name": "Belarus", "City Name": "Gomel", "Population 1990": "494199", "Population 2000": 477087.0, "Population 2010": 482831, "%Growth Rate 1990-2001": -0.35, "%Growth Rate 2000-2011": 0.12, "Source": "UN Population Division"}}
,{"type": "Feature", "geometry": {"type": "Point", "coordinates": [4.4035, 51.2199]}, "properties": {"Country Name": "Belgium", "City Name": "Antwerpen", "Population 1990": "897467", "Population 2000": 927154.0, "Population 2010": 971258, "%Growth Rate 1990-2001": 0.33, "%Growth Rate 2000-2011": 0.47, "Source": "UN Population Division"}}
,{"type": "Feature", "geometry": {"type": "Point", "coordinates": [-66.1568, -17.3895]}, "properties": {"Country Name": "Bolivia", "City Name": "Cochabamba", "Population 1990": "484583", "Population 2000": 720840.0, "Population 2010": 1042197, "%Growth Rate 1990-2001": 3.97, "%Growth Rate 2000-2011": 3.69, "Source": "UN Population Division"}}
,{"type": "Feature", "geometry": {"type": "Point", "coordinates": [-43.9378, -19.9208]}, "properties": {"Country Name": "Brazil", "City Name": "Belo Horizonte", "Population 1990": "3548079", "Population 2000": 4807277.0, "Population 2010": 5409346, "%Growth Rate 1990-2001": 3.04, "%Growth Rate 2000-2011": 1.18, "Source": "UN Population Division"}}
,{"type": "Feature", "geometry": {"type": "Point", "coordinates": [-49.2731, -25.4278]}, "properties": {"Country Name": "Brazil", "City Name": "Curitiba", "Population 1990": "1829370", "Population 2000": 2493606.0, "Population 2010": 3118137, "%Growth Rate 1990-2001": 3.1, "%Growth Rate 2000-2011": 2.24, "Source": "UN Population Division"}}
,{"type": "Feature", "geometry": {"type": "Point", "coordinates": [-48.5492, -27.5967]}, "properties": {"Country Name": "Brazil", "City Name": "Florianopolis", "Population 1990": "502629", "Population 2000": 733915.0, "Population 2010": 1010091, "%Growth Rate 1990-2001": 3.79, "%Growth Rate 2000-2011": 3.19, "Source": "UN Population Division"}}
,{"type": "Feature", "geometry": {"type": "Point", "coordinates": [-39.0494, -14.7889]}, "properties": {"Country Name": "Brazil", "City Name": "Ilheus", "Population 1990": "133834", "Population 2000": 161945.0, "Population 2010": 155338, "%Growth Rate 1990-2001": 1.91, "%Growth Rate 2000-2011": -0.42, "Source": "UN Population Division"}}
,{"type": "Feature", "geometry": {"type": "Point", "coordinates": [-40.0836, -13.8575]}, "properties": {"Country Name": "Brazil", "City Name": "Jequie", "Population 1990": "112950", "Population 2000": 130162.0, "Population 2010": 139346, "%Growth Rate 1990-2001": 1.42, "%Growth Rate 2000-2011": 0.68, "Source": "UN Population Division"}}
,{"type": "Feature", "geometry": {"type": "Point", "coordinates": [-48.3497, -10.209]}, "properties": {"Country Name": "Brazil", "City Name": "Palmas", "Population 1990": "18406", "Population 2000": 132713.0, "Population 2010": 220798, "%Growth Rate 1990-2001": 19.76, "%Growth Rate 2000-2011": 5.09, "Source": "UN Population Division"}}
,{"type": "Feature", "geometry": {"type": "Point", "coordinates": [-47.8103, -21.1775]}, "properties": {"Country Name": "Brazil", "City Name": "Ribeirao Preto", "Population 1990": "402510", "Population 2000": 501370.0, "Population 2010": 597722, "%Growth Rate 1990-2001": 2.2, "%Growth Rate 2000-2011": 1.76, "Source": "UN Population Division"}}
,{"type": "Feature", "geometry": {"type": "Point", "coordinates": [-46.6361, -23.5475]}, "properties": {"Country Name": "Brazil", "City Name": "Sao Paulo", "Population 1990": "14775840", "Population 2000": 17014078.0, "Population 2010": 19659808, "%Growth Rate 1990-2001": 1.41, "%Growth Rate 2000-2011": 1.45, "Source": "UN Population Division"}}
,{"type": "Feature", "geometry": {"type": "Point", "coordinates": [-73.5878, 45.5088]}, "properties": {"Country Name": "Canada", "City Name": "Montreal", "Population 1990": "3153675", "Population 2000": 3428971.0, "Population 2010": 3791073, "%Growth Rate 1990-2001": 0.84, "%Growth Rate 2000-2011": 1.0, "Source": "UN Population Division"}}
,{"type": "Feature", "geometry": {"type": "Point", "coordinates": [-123.3693, 48.4329]}, "properties": {"Country Name": "Canada", "City Name": "Victoria", "Population 1990": "281614", "Population 2000": 310564.0, "Population 2010": 342071, "%Growth Rate 1990-2001": 0.98, "%Growth Rate 2000-2011": 0.97, "Source": "UN Population Division"}}
,{"type": "Feature", "geometry": {"type": "Point", "coordinates": [-70.6483, -33.4569]}, "properties": {"Country Name": "Chile", "City Name": "Santiago", "Population 1990": "4615919", "Population 2000": 5658363.0, "Population 2010": 6269330, "%Growth Rate 1990-2001": 2.04, "%Growth Rate 2000-2011": 1.03, "Source": "UN Population Division"}}
,{"type": "Feature", "geometry": {"type": "Point", "coordinates": [117.0533, 30.543]}, "properties": {"Country Name": "China", "City Name": "Anqing, Anhui", "Population 1990": "521920", "Population 2000": 513196.0, "Population 2010": 792083, "%Growth Rate 1990-2001": -0.17, "%Growth Rate 2000-2011": 4.34, "Source": "Chinese Academy of Sciences"}}
,{"type": "Feature", "geometry": {"type": "Point", "coordinates": [116.3972, 39.9075]}, "properties": {"Country Name": "China", "City Name": "Beijing", "Population 1990": "7883489", "Population 2000": 10300723.0, "Population 2010": 16446857, "%Growth Rate 1990-2001": 2.67, "%Growth Rate 2000-2011": 4.68, "Source": "Chinese Academy of Sciences"}}
,{"type": "Feature", "geometry": {"type": "Point", "coordinates": [106.231, 29.595]}, "properties": {"Country Name": "China", "City Name": "Bicheng, Chongqing", "Population 1990": null, "Population 2000": 92146.0, "Population 2010": 204702, "%Growth Rate 1990-2001": 0.0, "%Growth Rate 2000-2011": 7.98, "Source": "Chinese Academy of Sciences"}}
,{"type": "Feature", "geometry": {"type": "Point", "coordinates": [113.1155, 36.1921]}, "properties": {"Country Name": "China", "City Name": "Changzhi, Hunan", "Population 1990": "552255", "Population 2000": 499095.0, "Population 2010": 653125, "%Growth Rate 1990-2001": -1.01, "%Growth Rate 2000-2011": 2.69, "Source": "Chinese Academy of Sciences"}}
,{"type": "Feature", "geometry": {"type": "Point", "coordinates": [119.9589, 31.7943]}, "properties": {"Country Name": "China", "City Name": "Changzhou, Jingsu", "Population 1990": "874743", "Population 2000": 1627722.0, "Population 2010": 2398334, "%Growth Rate 1990-2001": 6.21, "%Growth Rate 2000-2011": 3.88, "Source": "Chinese Academy of Sciences"}}
,{"type": "Feature", "geometry": {"type": "Point", "coordinates": [104.0667, 30.6667]}, "properties": {"Country Name": "China", "City Name": "Chengdu, Sichuan", "Population 1990": "3810528", "Population 2000": 4660461.0, "Population 2010": 7159583, "%Growth Rate 1990-2001": 2.01, "%Growth Rate 2000-2011": 4.29, "Source": "Chinese Academy of Sciences"}}
,{"type": "Feature", "geometry": {"type": "Point", "coordinates": [105.769, 26.68]}, "properties": {"Country Name": "China", "City Name": "Chengguan, Guizhou", "Population 1990": "53664", "Population 2000": 80542.0, "Population 2010": 120882, "%Growth Rate 1990-2001": 4.06, "%Growth Rate 2000-2011": 4.06, "Source": "Chinese Academy of Sciences"}}
,{"type": "Feature", "geometry": {"type": "Point", "coordinates": [113.2574, 23.1255]}, "properties": {"Country Name": "China", "City Name": "Guangzhou, Guangdong", "Population 1990": "10709722", "Population 2000": 13708825.0, "Population 2010": 16474039, "%Growth Rate 1990-2001": 2.47, "%Growth Rate 2000-2011": 1.84, "Source": "Chinese Academy of Sciences"}}
,{"type": "Feature", "geometry": {"type": "Point", "coordinates": [107.348, 30.332]}, "properties": {"Country Name": "China", "City Name": "Guixi, Chongqing", "Population 1990": "66776", "Population 2000": 112336.0, "Population 2010": 188980, "%Growth Rate 1990-2001": 5.2, "%Growth Rate 2000-2011": 5.2, "Source": "Chinese Academy of Sciences"}}
,{"type": "Feature", "geometry": {"type": "Point", "coordinates": [110.3301, 20.0274]}, "properties": {"Country Name": "China", "City Name": "Haikou", "Population 1990": "488512", "Population 2000": 1028724.0, "Population 2010": 1517410, "%Growth Rate 1990-2001": 7.45, "%Growth Rate 2000-2011": 3.89, "Source": "Chinese Academy of Sciences"}}
,{"type": "Feature", "geometry": {"type": "Point", "coordinates": [120.1614, 30.2937]}, "properties": {"Country Name": "China", "City Name": "Hangzhou", "Population 1990": "1980856", "Population 2000": 3311436.0, "Population 2010": 5269914, "%Growth Rate 1990-2001": 5.14, "%Growth Rate 2000-2011": 4.65, "Source": "Chinese Academy of Sciences"}}
,{"type": "Feature", "geometry": {"type": "Point", "coordinates": [114.1887, 22.2796]}, "properties": {"Country Name": "China", "City Name": "Hong Kong", "Population 1990": "5766038", "Population 2000": 6835301.0, "Population 2010": 7049514, "%Growth Rate 1990-2001": 1.7, "%Growth Rate 2000-2011": 0.31, "Source": "UN Population Division"}}
,{"type": "Feature", "geometry": {"type": "Point", "coordinates": [116.9971, 36.6767]}, "properties": {"Country Name": "China", "City Name": "Jinan", "Population 1990": "2708045", "Population 2000": 2795070.0, "Population 2010": 3527566, "%Growth Rate 1990-2001": 0.32, "%Growth Rate 2000-2011": 2.33, "Source": "Chinese Academy of Sciences"}}
,{"type": "Feature", "geometry": {"type": "Point", "coordinates": [112.7026, 22.3724]}, "properties": {"Country Name": "China", "City Name": "Kaiping", "Population 1990": "135341", "Population 2000": 343233.0, "Population 2010": 371019, "%Growth Rate 1990-2001": 9.31, "%Growth Rate 2000-2011": 0.78, "Source": "Chinese Academy of Sciences"}}
,{"type": "Feature", "geometry": {"type": "Point", "coordinates": [103.759, 29.5762]}, "properties": {"Country Name": "China", "City Name": "Leshan", "Population 1990": "1549637", "Population 2000": 459507.0, "Population 2010": 678752, "%Growth Rate 1990-2001": -12.16, "%Growth Rate 2000-2011": 3.9, "Source": "Chinese Academy of Sciences"}}
,{"type": "Feature", "geometry": {"type": "Point", "coordinates": [113.8477, 27.6348]}, "properties": {"Country Name": "China", "City Name": "Pingxiang", "Population 1990": "1388427", "Population 2000": 641536.0, "Population 2010": 1012978, "%Growth Rate 1990-2001": -7.72, "%Growth Rate 2000-2011": 4.57, "Source": "Chinese Academy of Sciences"}}
,{"type": "Feature", "geometry": {"type": "Point", "coordinates": [120.3719, 36.0986]}, "properties": {"Country Name": "China", "City Name": "Qingdao", "Population 1990": "2168918", "Population 2000": 2973189.0, "Population 2010": 3990942, "%Growth Rate 1990-2001": 3.15, "%Growth Rate 2000-2011": 2.94, "Source": "Chinese Academy of Sciences"}}
,{"type": "Feature", "geometry": {"type": "Point", "coordinates": [121.4581, 31.2222]}, "properties": {"Country Name": "China", "City Name": "Shanghai", "Population 1990": "9506328", "Population 2000": 16482064.0, "Population 2010": 26684208, "%Growth Rate 1990-2001": 5.5, "%Growth Rate 2000-2011": 4.82, "Source": "Chinese Academy of Sciences"}}
,{"type": "Feature", "geometry": {"type": "Point", "coordinates": [114.0634, 22.5415]}, "properties": {"Country Name": "China", "City Name": "Shenzhen", "Population 1990": "1081621", "Population 2000": 6480340.0, "Population 2010": 10358381, "%Growth Rate 1990-2001": 17.9, "%Growth Rate 2000-2011": 4.69, "Source": "Chinese Academy of Sciences"}}
,{"type": "Feature", "geometry": {"type": "Point", "coordinates": [108.7152, 30.927]}, "properties": {"Country Name": "China", "City Name": "Shuangjiang", "Population 1990": null, "Population 2000": null, "Population 2010": 172311, "%Growth Rate 1990-2001": 0.0, "%Growth Rate 2000-2011": 0.0, "Source": "Chinese Academy of Sciences"}}
,{"type": "Feature", "geometry": {"type": "Point", "coordinates": [105.5639, 30.5236]}, "properties": {"Country Name": "China", "City Name": "Suining", "Population 1990": "1380804", "Population 2000": 428262.0, "Population 2010": 549826, "%Growth Rate 1990-2001": -11.71, "%Growth Rate 2000-2011": 2.5, "Source": "Chinese Academy of Sciences"}}
,{"type": "Feature", "geometry": {"type": "Point", "coordinates": [121.5457, 25.047]}, "properties": {"Country Name": "China", "City Name": "Taipei", "Population 1990": "7418552", "Population 2000": 7778194.0, "Population 2010": 8234767, "%Growth Rate 1990-2001": -0.35, "%Growth Rate 2000-2011": 0.07, "Source": "Citypopulation.de"}}
,{"type": "Feature", "geometry": {"type": "Point", "coordinates": [118.1799, 39.6285]}, "properties": {"Country Name": "China", "City Name": "Tangshan ", "Population 1990": "1609621", "Population 2000": 1660054.0, "Population 2010": 2128191, "%Growth Rate 1990-2001": 0.31, "%Growth Rate 2000-2011": 2.48, "Source": "Chinese Academy of Sciences"}}
,{"type": "Feature", "geometry": {"type": "Point", "coordinates": [117.1886, 39.1088]}, "properties": {"Country Name": "China", "City Name": "Tianjin", "Population 1990": "6010116", "Population 2000": 6895078.0, "Population 2010": 9698634, "%Growth Rate 1990-2001": 1.37, "%Growth Rate 2000-2011": 3.41, "Source": "Chinese Academy of Sciences"}}
,{"type": "Feature", "geometry": {"type": "Point", "coordinates": [114.2667, 30.5833]}, "properties": {"Country Name": "China", "City Name": "Wuhan", "Population 1990": "4414253", "Population 2000": 6787482.0, "Population 2010": 7541527, "%Growth Rate 1990-2001": 4.3, "%Growth Rate 2000-2011": 1.05, "Source": "Chinese Academy of Sciences"}}
,{"type": "Feature", "geometry": {"type": "Point", "coordinates": [108.4877, 34.3011]}, "properties": {"Country Name": "China", "City Name": "Xingping", "Population 1990": "80522", "Population 2000": 375962.0, "Population 2010": 247539, "%Growth Rate 1990-2001": 15.41, "%Growth Rate 2000-2011": -4.18, "Source": "Chinese Academy of Sciences"}}
,{"type": "Feature", "geometry": {"type": "Point", "coordinates": [118.507, 33.004]}, "properties": {"Country Name": "China", "City Name": "Xucheng", "Population 1990": "78622", "Population 2000": 105425.0, "Population 2010": 141365, "%Growth Rate 1990-2001": 2.93, "%Growth Rate 2000-2011": 2.93, "Source": "Chinese Academy of Sciences"}}
,{"type": "Feature", "geometry": {"type": "Point", "coordinates": [115.786, 36.116]}, "properties": {"Country Name": "China", "City Name": "Yanggu", "Population 1990": null, "Population 2000": null, "Population 2010": 176309, "%Growth Rate 1990-2001": 0.0, "%Growth Rate 2000-2011": 5.76, "Source": "UN Population Division"}}
,{"type": "Feature", "geometry": {"type": "Point", "coordinates": [112.3487, 28.5666]}, "properties": {"Country Name": "China", "City Name": "Yiyang", "Population 1990": "229518", "Population 2000": 707739.0, "Population 2010": 697607, "%Growth Rate 1990-2001": 11.26, "%Growth Rate 2000-2011": -0.14, "Source": "Chinese Academy of Sciences"}}
,{"type": "Feature", "geometry": {"type": "Point", "coordinates": [121.247, 28.125]}, "properties": {"Country Name": "China", "City Name": "Yucheng Urban Community", "Population 1990": null, "Population 2000": 86000.0, "Population 2010": 178768, "%Growth Rate 1990-2001": 0.0, "%Growth Rate 2000-2011": 7.32, "Source": "Chinese Academy of Sciences"}}
,{"type": "Feature", "geometry": {"type": "Point", "coordinates": [110.1533, 22.6339]}, "properties": {"Country Name": "China", "City Name": "Yulin", "Population 1990": "139865", "Population 2000": 557866.0, "Population 2010": 715272, "%Growth Rate 1990-2001": 13.83, "%Growth Rate 2000-2011": 2.49, "Source": "Chinese Academy of Sciences"}}
,{"type": "Feature", "geometry": {"type": "Point", "coordinates": [113.6486, 34.7578]}, "properties": {"Country Name": "China", "City Name": "Zhengzhou", "Population 1990": "1875691", "Population 2000": 2723654.0, "Population 2010": 4349012, "%Growth Rate 1990-2001": 3.73, "%Growth Rate 2000-2011": 4.68, "Source": "Chinese Academy of Sciences"}}
,{"type": "Feature", "geometry": {"type": "Point", "coordinates": [120.2368, 29.7132]}, "properties": {"Country Name": "China", "City Name": "Zhuji", "Population 1990": "127549", "Population 2000": 469031.0, "Population 2010": 606683, "%Growth Rate 1990-2001": 13.02, "%Growth Rate 2000-2011": 2.57, "Source": "Chinese Academy of Sciences"}}
,{"type": "Feature", "geometry": {"type": "Point", "coordinates": [106.9365, 27.7113]}, "properties": {"Country Name": "China", "City Name": "Zunyi", "Population 1990": "400180", "Population 2000": 833857.0, "Population 2010": 1124055, "%Growth Rate 1990-2001": 7.34, "%Growth Rate 2000-2011": 2.99, "Source": "Chinese Academy of Sciences"}}
,{"type": "Feature", "geometry": {"type": "Point", "coordinates": [-74.0818, 4.6097]}, "properties": {"Country Name": "Colombia", "City Name": "Bogota", "Population 1990": "4740448", "Population 2000": 6355892.0, "Population 2010": 8505956, "%Growth Rate 1990-2001": 2.93, "%Growth Rate 2000-2011": 2.91, "Source": "UN Population Division"}}
,{"type": "Feature", "geometry": {"type": "Point", "coordinates": [-73.2532, 10.4631]}, "properties": {"Country Name": "Colombia", "City Name": "Valledupar", "Population 1990": "175227", "Population 2000": 253081.0, "Population 2010": 353485, "%Growth Rate 1990-2001": 3.68, "%Growth Rate 2000-2011": 3.34, "Source": "UN Population Division"}}
,{"type": "Feature", "geometry": {"type": "Point", "coordinates": [15.3136, -4.3276]}, "properties": {"Country Name": "Congo, Dem. Rep.", "City Name": "Kinshasa", "Population 1990": "3683274", "Population 2000": 6140419.0, "Population 2010": 9381673, "%Growth Rate 1990-2001": 5.11, "%Growth Rate 2000-2011": 4.24, "Source": "UN Population Division"}}
,{"type": "Feature", "geometry": {"type": "Point", "coordinates": [27.4794, -11.6609]}, "properties": {"Country Name": "Congo, Dem. Rep.", "City Name": "Lubumbashi", "Population 1990": "722478", "Population 2000": 1089100.0, "Population 2010": 1642230, "%Growth Rate 1990-2001": 4.1, "%Growth Rate 2000-2011": 4.11, "Source": "UN Population Division"}}
,{"type": "Feature", "geometry": {"type": "Point", "coordinates": [-76.2631, 20.8872]}, "properties": {"Country Name": "Cuba", "City Name": "Holguin", "Population 1990": "230036", "Population 2000": 262317.0, "Population 2010": 291875, "%Growth Rate 1990-2001": 1.31, "%Growth Rate 2000-2011": 1.07, "Source": "UN Population Division"}}
,{"type": "Feature", "geometry": {"type": "Point", "coordinates": [-78.525, -0.2299]}, "properties": {"Country Name": "Ecuador", "City Name": "Quito", "Population 1990": "1087645", "Population 2000": 1357248.0, "Population 2010": 1597586, "%Growth Rate 1990-2001": 2.21, "%Growth Rate 2000-2011": 1.63, "Source": "UN Population Division"}}
,{"type": "Feature", "geometry": {"type": "Point", "coordinates": [29.9046, 31.1925]}, "properties": {"Country Name": "Egypt", "City Name": "Alexandria", "Population 1990": "3055905", "Population 2000": 3545628.0, "Population 2010": 4332570, "%Growth Rate 1990-2001": 1.49, "%Growth Rate 2000-2011": 2.0, "Source": "UN Population Division"}}
,{"type": "Feature", "geometry": {"type": "Point", "coordinates": [31.2394, 30.0392]}, "properties": {"Country Name": "Egypt", "City Name": "Cairo", "Population 1990": "9892143", "Population 2000": 13625565.0, "Population 2010": 16899015, "%Growth Rate 1990-2001": 3.2, "%Growth Rate 2000-2011": 2.15, "Source": "UN Population Division"}}
,{"type": "Feature", "geometry": {"type": "Point", "coordinates": [-89.1872, 13.6894]}, "properties": {"Country Name": "El Salvador", "City Name": "San Salvador", "Population 1990": "969631", "Population 2000": 1061609.0, "Population 2010": 1086428, "%Growth Rate 1990-2001": 0.91, "%Growth Rate 2000-2011": 0.23, "Source": "UN Population Division"}}
,{"type": "Feature", "geometry": {"type": "Point", "coordinates": [38.7469, 9.025]}, "properties": {"Country Name": "Ethiopia", "City Name": "Addis Ababa", "Population 1990": "1790860", "Population 2000": 2376701.0, "Population 2010": 2918813, "%Growth Rate 1990-2001": 2.83, "%Growth Rate 2000-2011": 2.06, "Source": "UN Population Division"}}
,{"type": "Feature", "geometry": {"type": "Point", "coordinates": [178.4415, -18.1416]}, "properties": {"Country Name": "Fiji", "City Name": "Suva", "Population 1990": "150964", "Population 2000": 169749.0, "Population 2010": 174469, "%Growth Rate 1990-2001": 1.17, "%Growth Rate 2000-2011": 0.27, "Source": "UN Population Division"}}
,{"type": "Feature", "geometry": {"type": "Point", "coordinates": [0.2, 48.0]}, "properties": {"Country Name": "France", "City Name": "Le Mans", "Population 1990": "204654", "Population 2000": 208141.0, "Population 2010": 207658, "%Growth Rate 1990-2001": 0.17, "%Growth Rate 2000-2011": -0.02, "Source": "UN Population Division"}}
,{"type": "Feature", "geometry": {"type": "Point", "coordinates": [2.3488, 48.8534]}, "properties": {"Country Name": "France", "City Name": "Paris", "Population 1990": "9330327", "Population 2000": 9736538.0, "Population 2010": 10460118, "%Growth Rate 1990-2001": 0.43, "%Growth Rate 2000-2011": 0.72, "Source": "UN Population Division"}}
,{"type": "Feature", "geometry": {"type": "Point", "coordinates": [13.4105, 52.5244]}, "properties": {"Country Name": "Germany", "City Name": "Berlin", "Population 1990": "3421662", "Population 2000": 3384417.0, "Population 2010": 3474830, "%Growth Rate 1990-2001": -0.11, "%Growth Rate 2000-2011": 0.26, "Source": "UN Population Division"}}
,{"type": "Feature", "geometry": {"type": "Point", "coordinates": [11.9699, 51.4872]}, "properties": {"Country Name": "Germany", "City Name": "Halle", "Population 1990": "315923", "Population 2000": 251026.0, "Population 2010": 234575, "%Growth Rate 1990-2001": -2.3, "%Growth Rate 2000-2011": -0.68, "Source": "UN Population Division"}}
,{"type": "Feature", "geometry": {"type": "Point", "coordinates": [8.2124, 53.1426]}, "properties": {"Country Name": "Germany", "City Name": "Oldenburg", "Population 1990": "142680", "Population 2000": 154478.0, "Population 2010": 161491, "%Growth Rate 1990-2001": 0.79, "%Growth Rate 2000-2011": 0.44, "Source": "UN Population Division"}}
,{"type": "Feature", "geometry": {"type": "Point", "coordinates": [-0.1969, 5.556]}, "properties": {"Country Name": "Ghana", "City Name": "Accra", "Population 1990": "1197161", "Population 2000": 1668240.0, "Population 2010": 2060076, "%Growth Rate 1990-2001": 3.32, "%Growth Rate 2000-2011": 2.11, "Source": "UN Population Division"}}
,{"type": "Feature", "geometry": {"type": "Point", "coordinates": [22.9439, 40.6403]}, "properties": {"Country Name": "Greece", "City Name": "Thessaloniki", "Population 1990": "745906", "Population 2000": 796973.0, "Population 2010": 758134, "%Growth Rate 1990-2001": 0.66, "%Growth Rate 2000-2011": -0.5, "Source": "UN Population Division"}}
,{"type": "Feature", "geometry": {"type": "Point", "coordinates": [-90.5307, 14.6127]}, "properties": {"Country Name": "Guatemala", "City Name": "Guatemala City", "Population 1990": "1448143", "Population 2000": 1972933.0, "Population 2010": 2583587, "%Growth Rate 1990-2001": 3.09, "%Growth Rate 2000-2011": 2.7, "Source": "UN Population Division"}}
,{"type": "Feature", "geometry": {"type": "Point", "coordinates": [19.0399, 47.498]}, "properties": {"Country Name": "Hungary", "City Name": "Budapest", "Population 1990": "2005208", "Population 2000": 1787247.0, "Population 2010": 1734398, "%Growth Rate 1990-2001": -1.15, "%Growth Rate 2000-2011": -0.3, "Source": "UN Population Division"}}
,{"type": "Feature", "geometry": {"type": "Point", "coordinates": [72.6167, 23.0333]}, "properties": {"Country Name": "India", "City Name": "Ahmadabad", "Population 1990": "3254881", "Population 2000": 4426936.0, "Population 2010": 6209893, "%Growth Rate 1990-2001": 3.08, "%Growth Rate 2000-2011": 3.38, "Source": "UN Population Division"}}
,{"type": "Feature", "geometry": {"type": "Point", "coordinates": [74.5045, 15.8521]}, "properties": {"Country Name": "India", "City Name": "Belgaum", "Population 1990": "394653", "Population 2000": 498574.0, "Population 2010": 602649, "%Growth Rate 1990-2001": 2.34, "%Growth Rate 2000-2011": 1.9, "Source": "UN Population Division"}}
,{"type": "Feature", "geometry": {"type": "Point", "coordinates": [76.9614, 10.9925]}, "properties": {"Country Name": "India", "City Name": "Coimbatore", "Population 1990": "1087707", "Population 2000": 1420058.0, "Population 2010": 2095301, "%Growth Rate 1990-2001": 2.67, "%Growth Rate 2000-2011": 3.89, "Source": "UN Population Division"}}
,{"type": "Feature", "geometry": {"type": "Point", "coordinates": [77.4933, 13.8289]}, "properties": {"Country Name": "India", "City Name": "Hindupur", "Population 1990": "100372", "Population 2000": 123585.0, "Population 2010": 149886, "%Growth Rate 1990-2001": 2.08, "%Growth Rate 2000-2011": 1.93, "Source": "UN Population Division"}}
,{"type": "Feature", "geometry": {"type": "Point", "coordinates": [78.4744, 17.3753]}, "properties": {"Country Name": "India", "City Name": "Hyderabad", "Population 1990": "4192578", "Population 2000": 5445400.0, "Population 2010": 7577527, "%Growth Rate 1990-2001": 2.61, "%Growth Rate 2000-2011": 3.3, "Source": "UN Population Division"}}
,{"type": "Feature", "geometry": {"type": "Point", "coordinates": [75.8167, 26.9167]}, "properties": {"Country Name": "India", "City Name": "Jaipur", "Population 1990": "1478092", "Population 2000": 2259476.0, "Population 2010": 3016722, "%Growth Rate 1990-2001": 4.24, "%Growth Rate 2000-2011": 2.89, "Source": "UN Population Division"}}
,{"type": "Feature", "geometry": {"type": "Point", "coordinates": [75.8833, 19.8333]}, "properties": {"Country Name": "India", "City Name": "Jalna", "Population 1990": "170859", "Population 2000": 230925.0, "Population 2010": 281727, "%Growth Rate 1990-2001": 3.01, "%Growth Rate 2000-2011": 1.99, "Source": "UN Population Division"}}
,{"type": "Feature", "geometry": {"type": "Point", "coordinates": [80.35, 26.4667]}, "properties": {"Country Name": "India", "City Name": "Kanpur", "Population 1990": "2001193", "Population 2000": 2640593.0, "Population 2010": 2904192, "%Growth Rate 1990-2001": 2.77, "%Growth Rate 2000-2011": 0.95, "Source": "UN Population Division"}}
,{"type": "Feature", "geometry": {"type": "Point", "coordinates": [88.356, 22.5335]}, "properties": {"Country Name": "India", "City Name": "Kolkata", "Population 1990": "10889658", "Population 2000": 13058060.0, "Population 2010": 14283096, "%Growth Rate 1990-2001": 1.82, "%Growth Rate 2000-2011": 0.9, "Source": "UN Population Division"}}
,{"type": "Feature", "geometry": {"type": "Point", "coordinates": [75.7787, 11.2567]}, "properties": {"Country Name": "India", "City Name": "Kozhikode", "Population 1990": "781000", "Population 2000": 1236674.0, "Population 2010": 1968626, "%Growth Rate 1990-2001": 4.6, "%Growth Rate 2000-2011": 4.65, "Source": "UN Population Division"}}
,{"type": "Feature", "geometry": {"type": "Point", "coordinates": [74.5333, 20.55]}, "properties": {"Country Name": "India", "City Name": "Malegaon", "Population 1990": "335113", "Population 2000": 404389.0, "Population 2010": 563424, "%Growth Rate 1990-2001": 1.88, "%Growth Rate 2000-2011": 3.32, "Source": "UN Population Division"}}
,{"type": "Feature", "geometry": {"type": "Point", "coordinates": [72.8808, 19.074]}, "properties": {"Country Name": "India", "City Name": "Mumbai", "Population 1990": "12436423", "Population 2000": 16366787.0, "Population 2010": 19421983, "%Growth Rate 1990-2001": 2.75, "%Growth Rate 2000-2011": 1.71, "Source": "UN Population Division"}}
,{"type": "Feature", "geometry": {"type": "Point", "coordinates": [76.7833, 19.2667]}, "properties": {"Country Name": "India", "City Name": "Parbhani", "Population 1990": "183370", "Population 2000": 253902.0, "Population 2010": 303734, "%Growth Rate 1990-2001": 3.25, "%Growth Rate 2000-2011": 1.79, "Source": "UN Population Division"}}
,{"type": "Feature", "geometry": {"type": "Point", "coordinates": [73.8616, 18.5161]}, "properties": {"Country Name": "India", "City Name": "Pune", "Population 1990": "2429830", "Population 2000": 3654766.0, "Population 2010": 4951375, "%Growth Rate 1990-2001": 4.08, "%Growth Rate 2000-2011": 3.04, "Source": "UN Population Division"}}
,{"type": "Feature", "geometry": {"type": "Point", "coordinates": [82.6701, 24.1922]}, "properties": {"Country Name": "India", "City Name": "Singrauli", "Population 1990": "55860", "Population 2000": 172207.0, "Population 2010": 217794, "%Growth Rate 1990-2001": 11.26, "%Growth Rate 2000-2011": 2.35, "Source": "UN Population Division"}}
,{"type": "Feature", "geometry": {"type": "Point", "coordinates": [80.6827, 27.5619]}, "properties": {"Country Name": "India", "City Name": "Sitapur", "Population 1990": "120346", "Population 2000": 149624.0, "Population 2010": 185556, "%Growth Rate 1990-2001": 2.18, "%Growth Rate 2000-2011": 2.15, "Source": "UN Population Division"}}
,{"type": "Feature", "geometry": {"type": "Point", "coordinates": [80.6167, 16.5167]}, "properties": {"Country Name": "India", "City Name": "Vijayawada", "Population 1990": "821171", "Population 2000": 999224.0, "Population 2010": 1453128, "%Growth Rate 1990-2001": 1.96, "%Growth Rate 2000-2011": 3.75, "Source": "UN Population Division"}}
,{"type": "Feature", "geometry": {"type": "Point", "coordinates": [108.557, -6.7063]}, "properties": {"Country Name": "Indonesia", "City Name": "Cirebon", "Population 1990": "253772", "Population 2000": 272603.0, "Population 2010": 296811, "%Growth Rate 1990-2001": 0.72, "%Growth Rate 2000-2011": 0.85, "Source": "UN Population Division"}}
,{"type": "Feature", "geometry": {"type": "Point", "coordinates": [98.6667, 3.5833]}, "properties": {"Country Name": "Indonesia", "City Name": "Medan", "Population 1990": "1717656", "Population 2000": 1912046.0, "Population 2010": 2100915, "%Growth Rate 1990-2001": 1.07, "%Growth Rate 2000-2011": 0.94, "Source": "UN Population Division"}}
,{"type": "Feature", "geometry": {"type": "Point", "coordinates": [104.7458, -2.9167]}, "properties": {"Country Name": "Indonesia", "City Name": "Palembang", "Population 1990": "1130061", "Population 2000": 1458663.0, "Population 2010": 1455227, "%Growth Rate 1990-2001": 2.55, "%Growth Rate 2000-2011": -0.02, "Source": "UN Population Division"}}
,{"type": "Feature", "geometry": {"type": "Point", "coordinates": [119.6301, -4.0138]}, "properties": {"Country Name": "Indonesia", "City Name": "Parepare", "Population 1990": "84093", "Population 2000": 98591.0, "Population 2010": 125207, "%Growth Rate 1990-2001": 1.59, "%Growth Rate 2000-2011": 2.39, "Source": "Citypopulation.de"}}
,{"type": "Feature", "geometry": {"type": "Point", "coordinates": [99.0687, 2.9595]}, "properties": {"Country Name": "Indonesia", "City Name": "Pematang Siantar", "Population 1990": "216578", "Population 2000": 242754.0, "Population 2010": 234563, "%Growth Rate 1990-2001": 1.14, "%Growth Rate 2000-2011": -0.34, "Source": "UN Population Division"}}
,{"type": "Feature", "geometry": {"type": "Point", "coordinates": [48.6693, 31.3203]}, "properties": {"Country Name": "Iran", "City Name": "Ahvaz", "Population 1990": "685490", "Population 2000": 867969.0, "Population 2010": 1077207, "%Growth Rate 1990-2001": 2.36, "%Growth Rate 2000-2011": 2.16, "Source": "UN Population Division"}}
,{"type": "Feature", "geometry": {"type": "Point", "coordinates": [54.4436, 36.8417]}, "properties": {"Country Name": "Iran", "City Name": "Gorgan", "Population 1990": "156394", "Population 2000": 216932.0, "Population 2010": 314021, "%Growth Rate 1990-2001": 3.27, "%Growth Rate 2000-2011": 3.7, "Source": "UN Population Division"}}
,{"type": "Feature", "geometry": {"type": "Point", "coordinates": [50.8764, 34.6401]}, "properties": {"Country Name": "Iran", "City Name": "Qom", "Population 1990": "643857", "Population 2000": 842616.0, "Population 2010": 1059658, "%Growth Rate 1990-2001": 2.69, "%Growth Rate 2000-2011": 2.29, "Source": "UN Population Division"}}
,{"type": "Feature", "geometry": {"type": "Point", "coordinates": [51.4215, 35.6944]}, "properties": {"Country Name": "Iran", "City Name": "Tehran", "Population 1990": "6364827", "Population 2000": 7128140.0, "Population 2010": 8058520, "%Growth Rate 1990-2001": 1.13, "%Growth Rate 2000-2011": 1.23, "Source": "UN Population Division"}}
,{"type": "Feature", "geometry": {"type": "Point", "coordinates": [44.4009, 33.3406]}, "properties": {"Country Name": "Iraq", "City Name": "Baghdad", "Population 1990": "4091650", "Population 2000": 5199948.0, "Population 2010": 5890677, "%Growth Rate 1990-2001": 2.4, "%Growth Rate 2000-2011": 1.25, "Source": "UN Population Division"}}
,{"type": "Feature", "geometry": {"type": "Point", "coordinates": [34.7806, 32.0809]}, "properties": {"Country Name": "Israel", "City Name": "Tel Aviv", "Population 1990": "2053370", "Population 2000": 2739385.0, "Population 2010": 3310530, "%Growth Rate 1990-2001": 2.88, "%Growth Rate 2000-2011": 1.89, "Source": "UN Population Division"}}
,{"type": "Feature", "geometry": {"type": "Point", "coordinates": [9.1834, 45.5531]}, "properties": {"Country Name": "Italy", "City Name": "Milan", "Population 1990": "3062900", "Population 2000": 2984837.0, "Population 2010": 3056107, "%Growth Rate 1990-2001": -0.26, "%Growth Rate 2000-2011": 0.24, "Source": "UN Population Division"}}
,{"type": "Feature", "geometry": {"type": "Point", "coordinates": [13.3598, 38.1158]}, "properties": {"Country Name": "Italy", "City Name": "Palermo", "Population 1990": "843738", "Population 2000": 854844.0, "Population 2010": 855030, "%Growth Rate 1990-2001": 0.13, "%Growth Rate 2000-2011": 0.0, "Source": "UN Population Division"}}
,{"type": "Feature", "geometry": {"type": "Point", "coordinates": [130.4181, 33.6064]}, "properties": {"Country Name": "Japan", "City Name": "Kitakyushu/Fukuoka", "Population 1990": "5269078", "Population 2000": 5420561.0, "Population 2010": 5556200, "%Growth Rate 1990-2001": 0.28, "%Growth Rate 2000-2011": 0.25, "Source": "UN Population Division"}}
,{"type": "Feature", "geometry": {"type": "Point", "coordinates": [133.9135, 34.6507]}, "properties": {"Country Name": "Japan", "City Name": "Okayama", "Population 1990": "380624", "Population 2000": 430955.0, "Population 2010": 477749, "%Growth Rate 1990-2001": 1.24, "%Growth Rate 2000-2011": 1.03, "Source": "UN Population Division"}}
,{"type": "Feature", "geometry": {"type": "Point", "coordinates": [135.5538, 34.6758]}, "properties": {"Country Name": "Japan", "City Name": "Osaka", "Population 1990": "18388783", "Population 2000": 18660022.0, "Population 2010": 19491722, "%Growth Rate 1990-2001": 0.15, "%Growth Rate 2000-2011": 0.44, "Source": "UN Population Division"}}
,{"type": "Feature", "geometry": {"type": "Point", "coordinates": [139.6917, 35.6895]}, "properties": {"Country Name": "Japan", "City Name": "Tokyo", "Population 1990": "32530003", "Population 2000": 34449908.0, "Population 2010": 36833979, "%Growth Rate 1990-2001": 0.57, "%Growth Rate 2000-2011": 0.67, "Source": "UN Population Division"}}
,{"type": "Feature", "geometry": {"type": "Point", "coordinates": [131.458, 34.155]}, "properties": {"Country Name": "Japan", "City Name": "Yamaguchi", "Population 1990": "191230", "Population 2000": 197115.0, "Population 2010": 196628, "%Growth Rate 1990-2001": 0.3, "%Growth Rate 2000-2011": -0.03, "Source": "Citypopulation.de"}}
,{"type": "Feature", "geometry": {"type": "Point", "coordinates": [69.6, 42.3]}, "properties": {"Country Name": "Kazakhstan", "City Name": "Shimkent", "Population 1990": "386152", "Population 2000": 444553.0, "Population 2010": 632837, "%Growth Rate 1990-2001": 1.41, "%Growth Rate 2000-2011": 3.53, "Source": "UN Population Division"}}
,{"type": "Feature", "geometry": {"type": "Point", "coordinates": [36.0667, -0.2833]}, "properties": {"Country Name": "Kenya", "City Name": "Nakuru", "Population 1990": "168047", "Population 2000": 224416.0, "Population 2010": 292994, "%Growth Rate 1990-2001": 2.89, "%Growth Rate 2000-2011": 2.67, "Source": "UN Population Division"}}
,{"type": "Feature", "geometry": {"type": "Point", "coordinates": [125.7543, 39.0339]}, "properties": {"Country Name": "Korea, Dem. Rep.", "City Name": "Pyongyang", "Population 1990": "2525965", "Population 2000": 2777161.0, "Population 2010": 2833299, "%Growth Rate 1990-2001": 0.95, "%Growth Rate 2000-2011": 0.2, "Source": "UN Population Division"}}
,{"type": "Feature", "geometry": {"type": "Point", "coordinates": [129.0403, 35.1028]}, "properties": {"Country Name": "Korea, Rep.", "City Name": "Busan", "Population 1990": "3772196", "Population 2000": 3594429.0, "Population 2010": 3329104, "%Growth Rate 1990-2001": -0.48, "%Growth Rate 2000-2011": -0.77, "Source": "UN Population Division"}}
,{"type": "Feature", "geometry": {"type": "Point", "coordinates": [127.141, 36.8132]}, "properties": {"Country Name": "Korea, Rep.", "City Name": "Cheonan", "Population 1990": "207274", "Population 2000": 282218.0, "Population 2010": 424752, "%Growth Rate 1990-2001": 3.09, "%Growth Rate 2000-2011": 4.09, "Source": "UN Population Division"}}
,{"type": "Feature", "geometry": {"type": "Point", "coordinates": [126.9186, 35.1461]}, "properties": {"Country Name": "Korea, Rep.", "City Name": "Gwangju", "Population 1990": "1121507", "Population 2000": 1343149.0, "Population 2010": 1471473, "%Growth Rate 1990-2001": 1.8, "%Growth Rate 2000-2011": 0.91, "Source": "UN Population Division"}}
,{"type": "Feature", "geometry": {"type": "Point", "coordinates": [128.0847, 35.1928]}, "properties": {"Country Name": "Korea, Rep.", "City Name": "Jinju", "Population 1990": "253626", "Population 2000": 278680.0, "Population 2010": 269877, "%Growth Rate 1990-2001": 0.94, "%Growth Rate 2000-2011": -0.32, "Source": "UN Population Division"}}
,{"type": "Feature", "geometry": {"type": "Point", "coordinates": [126.9778, 37.5683]}, "properties": {"Country Name": "Korea, Rep.", "City Name": "Seoul", "Population 1990": "10517565", "Population 2000": 9878468.0, "Population 2010": 9796045, "%Growth Rate 1990-2001": -0.63, "%Growth Rate 2000-2011": -0.08, "Source": "UN Population Division"}}
,{"type": "Feature", "geometry": {"type": "Point", "coordinates": [23.9, 54.9]}, "properties": {"Country Name": "Lithuania", "City Name": "Kaunas", "Population 1990": "418473", "Population 2000": 381618.0, "Population 2010": 319877, "%Growth Rate 1990-2001": -0.92, "%Growth Rate 2000-2011": -1.77, "Source": "UN Population Division"}}
,{"type": "Feature", "geometry": {"type": "Point", "coordinates": [101.0833, 4.5833]}, "properties": {"Country Name": "Malaysia", "City Name": "Ipoh", "Population 1990": "447387", "Population 2000": 536743.0, "Population 2010": 663576, "%Growth Rate 1990-2001": 1.82, "%Growth Rate 2000-2011": 2.12, "Source": "UN Population Division"}}
,{"type": "Feature", "geometry": {"type": "Point", "coordinates": [101.5766, 3.3302]}, "properties": {"Country Name": "Malaysia", "City Name": "Rawang", "Population 1990": "21882", "Population 2000": 67891.0, "Population 2010": 147824, "%Growth Rate 1990-2001": 11.32, "%Growth Rate 2000-2011": 7.78, "Source": "Citypopulation.de"}}
,{"type": "Feature", "geometry": {"type": "Point", "coordinates": [-8.0, 12.65]}, "properties": {"Country Name": "Mali", "City Name": "Bamako", "Population 1990": "746382", "Population 2000": 1141913.0, "Population 2010": 1933356, "%Growth Rate 1990-2001": 4.25, "%Growth Rate 2000-2011": 5.27, "Source": "UN Population Division"}}
,{"type": "Feature", "geometry": {"type": "Point", "coordinates": [-99.1419, 19.4273]}, "properties": {"Country Name": "Mexico", "City Name": "Mexico City", "Population 1990": "15642318", "Population 2000": 18457027.0, "Population 2010": 20131688, "%Growth Rate 1990-2001": 1.65, "%Growth Rate 2000-2011": 0.87, "Source": "UN Population Division"}}
,{"type": "Feature", "geometry": {"type": "Point", "coordinates": [-107.3897, 24.7994]}, "properties": {"Country Name": "Mexico", "City Name": "Culiacan", "Population 1990": "419397", "Population 2000": 544888.0, "Population 2010": 677143, "%Growth Rate 1990-2001": 2.62, "%Growth Rate 2000-2011": 2.17, "Source": "UN Population Division"}}
,{"type": "Feature", "geometry": {"type": "Point", "coordinates": [-103.3333, 20.6667]}, "properties": {"Country Name": "Mexico", "City Name": "Guadalajara", "Population 1990": "3022748", "Population 2000": 3723804.0, "Population 2010": 4441523, "%Growth Rate 1990-2001": 2.09, "%Growth Rate 2000-2011": 1.76, "Source": "UN Population Division"}}
,{"type": "Feature", "geometry": {"type": "Point", "coordinates": [-98.2833, 26.0833]}, "properties": {"Country Name": "Mexico", "City Name": "Reynosa", "Population 1990": "380452", "Population 2000": 531003.0, "Population 2010": 729111, "%Growth Rate 1990-2001": 3.33, "%Growth Rate 2000-2011": 3.17, "Source": "UN Population Division"}}
,{"type": "Feature", "geometry": {"type": "Point", "coordinates": [-117.0167, 32.5333]}, "properties": {"Country Name": "Mexico", "City Name": "Tijuana", "Population 1990": "811688", "Population 2000": 1364918.0, "Population 2010": 1755175, "%Growth Rate 1990-2001": 5.2, "%Growth Rate 2000-2011": 2.52, "Source": "UN Population Division"}}
,{"type": "Feature", "geometry": {"type": "Point", "coordinates": [106.8832, 47.9077]}, "properties": {"Country Name": "Mongolia", "City Name": "Ulaanbaatar", "Population 1990": "571692", "Population 2000": 765122.0, "Population 2010": 1137840, "%Growth Rate 1990-2001": 2.91, "%Growth Rate 2000-2011": 3.97, "Source": "UN Population Division"}}
,{"type": "Feature", "geometry": {"type": "Point", "coordinates": [-8.0083, 31.6315]}, "properties": {"Country Name": "Morocco", "City Name": "Marrakesh", "Population 1990": "578178", "Population 2000": 751310.0, "Population 2010": 974239, "%Growth Rate 1990-2001": 2.62, "%Growth Rate 2000-2011": 2.6, "Source": "UN Population Division"}}
,{"type": "Feature", "geometry": {"type": "Point", "coordinates": [34.8389, -19.8436]}, "properties": {"Country Name": "Mozambique", "City Name": "Beira", "Population 1990": "314192", "Population 2000": 418040.0, "Population 2010": 437291, "%Growth Rate 1990-2001": 2.86, "%Growth Rate 2000-2011": 0.45, "Source": "UN Population Division"}}
,{"type": "Feature", "geometry": {"type": "Point", "coordinates": [98.618, 12.448]}, "properties": {"Country Name": "Myanmar", "City Name": "Myeik", "Population 1990": " -   ", "Population 2000": 101358.0, "Population 2010": 111313, "%Growth Rate 1990-2001": 0.0, "%Growth Rate 2000-2011": 0.94, "Source": "Citypopulation.de"}}
,{"type": "Feature", "geometry": {"type": "Point", "coordinates": [83.9833, 28.2333]}, "properties": {"Country Name": "Nepal", "City Name": "Pokhara", "Population 1990": "88873", "Population 2000": 149415.0, "Population 2010": 253816, "%Growth Rate 1990-2001": 5.2, "%Growth Rate 2000-2011": 5.3, "Source": "UN Population Division"}}
,{"type": "Feature", "geometry": {"type": "Point", "coordinates": [6.0944, 52.5125]}, "properties": {"Country Name": "Netherlands", "City Name": "Zwolle", "Population 1990": "94712", "Population 2000": 106580.0, "Population 2010": 119761, "%Growth Rate 1990-2001": 1.18, "%Growth Rate 2000-2011": 1.17, "Source": "UN Population Division"}}
,{"type": "Feature", "geometry": {"type": "Point", "coordinates": [174.7667, -36.8667]}, "properties": {"Country Name": "New Zealand", "City Name": "Auckland", "Population 1990": "869681", "Population 2000": 1062905.0, "Population 2010": 1269324, "%Growth Rate 1990-2001": 2.01, "%Growth Rate 2000-2011": 1.78, "Source": "UN Population Division"}}
,{"type": "Feature", "geometry": {"type": "Point", "coordinates": [-86.878, 12.4379]}, "properties": {"Country Name": "Nicaragua", "City Name": "Leon", "Population 1990": "105191", "Population 2000": 131634.0, "Population 2010": 148002, "%Growth Rate 1990-2001": 2.24, "%Growth Rate 2000-2011": 1.17, "Source": "UN Population Division"}}
,{"type": "Feature", "geometry": {"type": "Point", "coordinates": [11.1673, 10.2897]}, "properties": {"Country Name": "Nigeria", "City Name": "Gombe", "Population 1990": "153744", "Population 2000": 230055.0, "Population 2010": 342000, "%Growth Rate 1990-2001": 4.03, "%Growth Rate 2000-2011": 3.97, "Source": "UN Population Division"}}
,{"type": "Feature", "geometry": {"type": "Point", "coordinates": [3.8964, 7.3878]}, "properties": {"Country Name": "Nigeria", "City Name": "Ibadan", "Population 1990": "1739222", "Population 2000": 2236331.0, "Population 2010": 2814304, "%Growth Rate 1990-2001": 2.51, "%Growth Rate 2000-2011": 2.3, "Source": "UN Population Division"}}
,{"type": "Feature", "geometry": {"type": "Point", "coordinates": [3.3958, 6.4531]}, "properties": {"Country Name": "Nigeria", "City Name": "Lagos", "Population 1990": "4764093", "Population 2000": 7280706.0, "Population 2010": 10780986, "%Growth Rate 1990-2001": 4.24, "%Growth Rate 2000-2011": 3.93, "Source": "UN Population Division"}}
,{"type": "Feature", "geometry": {"type": "Point", "coordinates": [3.9333, 7.85]}, "properties": {"Country Name": "Nigeria", "City Name": "Oyo", "Population 1990": "183000", "Population 2000": 243000.0, "Population 2010": 322000, "%Growth Rate 1990-2001": 2.84, "%Growth Rate 2000-2011": 2.82, "Source": "UN Population Division"}}
,{"type": "Feature", "geometry": {"type": "Point", "coordinates": [67.0822, 24.9056]}, "properties": {"Country Name": "Pakistan", "City Name": "Karachi", "Population 1990": "7147064", "Population 2000": 10031745.0, "Population 2010": 14080737, "%Growth Rate 1990-2001": 3.39, "%Growth Rate 2000-2011": 3.39, "Source": "UN Population Division"}}
,{"type": "Feature", "geometry": {"type": "Point", "coordinates": [74.3436, 31.5497]}, "properties": {"Country Name": "Pakistan", "City Name": "Lahore", "Population 1990": "3970161", "Population 2000": 5452178.0, "Population 2010": 7487415, "%Growth Rate 1990-2001": 3.17, "%Growth Rate 2000-2011": 3.17, "Source": "UN Population Division"}}
,{"type": "Feature", "geometry": {"type": "Point", "coordinates": [74.5167, 32.5]}, "properties": {"Country Name": "Pakistan", "City Name": "Sialkot", "Population 1990": "360813", "Population 2000": 436573.0, "Population 2010": 528243, "%Growth Rate 1990-2001": 1.91, "%Growth Rate 2000-2011": 1.91, "Source": "UN Population Division"}}
,{"type": "Feature", "geometry": {"type": "Point", "coordinates": [122.946, 10.6507]}, "properties": {"Country Name": "Philippines", "City Name": "Bacolod", "Population 1990": "365318", "Population 2000": 430339.0, "Population 2010": 513331, "%Growth Rate 1990-2001": 1.64, "%Growth Rate 2000-2011": 1.76, "Source": "UN Population Division"}}
,{"type": "Feature", "geometry": {"type": "Point", "coordinates": [123.8907, 10.3167]}, "properties": {"Country Name": "Philippines", "City Name": "Cebu City", "Population 1990": "611978", "Population 2000": 721059.0, "Population 2010": 868875, "%Growth Rate 1990-2001": 1.64, "%Growth Rate 2000-2011": 1.87, "Source": "UN Population Division"}}
,{"type": "Feature", "geometry": {"type": "Point", "coordinates": [120.9822, 14.6042]}, "properties": {"Country Name": "Philippines", "City Name": "Manila", "Population 1990": "7972799", "Population 2000": 9961912.0, "Population 2010": 11891107, "%Growth Rate 1990-2001": 2.23, "%Growth Rate 2000-2011": 1.77, "Source": "UN Population Division"}}
,{"type": "Feature", "geometry": {"type": "Point", "coordinates": [21.0118, 52.2298]}, "properties": {"Country Name": "Poland", "City Name": "Warsaw", "Population 1990": "1628303", "Population 2000": 1666183.0, "Population 2010": 1702689, "%Growth Rate 1990-2001": 0.23, "%Growth Rate 2000-2011": 0.22, "Source": "UN Population Division"}}
,{"type": "Feature", "geometry": {"type": "Point", "coordinates": [48.0408, 46.3497]}, "properties": {"Country Name": "Russia", "City Name": "Astrakhan", "Population 1990": "505451", "Population 2000": 506224.0, "Population 2010": 519832, "%Growth Rate 1990-2001": 0.02, "%Growth Rate 2000-2011": 0.27, "Source": "UN Population Division"}}
,{"type": "Feature", "geometry": {"type": "Point", "coordinates": [56.8124, 59.4152]}, "properties": {"Country Name": "Russia", "City Name": "Berezniki", "Population 1990": "197079", "Population 2000": 179972.0, "Population 2010": 157080, "%Growth Rate 1990-2001": -0.91, "%Growth Rate 2000-2011": -1.36, "Source": "UN Population Division"}}
,{"type": "Feature", "geometry": {"type": "Point", "coordinates": [37.6218, 55.755]}, "properties": {"Country Name": "Russia", "City Name": "Moscow", "Population 1990": "8986631", "Population 2000": 10004523.0, "Population 2010": 11461264, "%Growth Rate 1990-2001": 1.07, "%Growth Rate 2000-2011": 1.36, "Source": "UN Population Division"}}
,{"type": "Feature", "geometry": {"type": "Point", "coordinates": [53.4678, 54.4828]}, "properties": {"Country Name": "Russia", "City Name": "Oktyabrsky", "Population 1990": "105783", "Population 2000": 108154.0, "Population 2010": 109375, "%Growth Rate 1990-2001": 0.22, "%Growth Rate 2000-2011": 0.11, "Source": "UN Population Division"}}
,{"type": "Feature", "geometry": {"type": "Point", "coordinates": [30.3262, 59.9299]}, "properties": {"Country Name": "Russia", "City Name": "Saint Petersburg", "Population 1990": "4988616", "Population 2000": 4719274.0, "Population 2010": 4871556, "%Growth Rate 1990-2001": -0.56, "%Growth Rate 2000-2011": 0.32, "Source": "UN Population Division"}}
,{"type": "Feature", "geometry": {"type": "Point", "coordinates": [65.5272, 57.1522]}, "properties": {"Country Name": "Russia", "City Name": "Tyumen", "Population 1990": "477502", "Population 2000": 504384.0, "Population 2010": 579187, "%Growth Rate 1990-2001": 0.55, "%Growth Rate 2000-2011": 1.38, "Source": "UN Population Division"}}
,{"type": "Feature", "geometry": {"type": "Point", "coordinates": [30.0579, -1.9474]}, "properties": {"Country Name": "Rwanda", "City Name": "Kigali", "Population 1990": "219142", "Population 2000": 578122.0, "Population 2010": 1044145, "%Growth Rate 1990-2001": 9.7, "%Growth Rate 2000-2011": 5.91, "Source": "UN Population Division"}}
,{"type": "Feature", "geometry": {"type": "Point", "coordinates": [46.7096, 24.6905]}, "properties": {"Country Name": "Saudi Arabia", "City Name": "Riyadh", "Population 1990": "2325243", "Population 2000": 3567444.0, "Population 2010": 5227076, "%Growth Rate 1990-2001": 4.28, "%Growth Rate 2000-2011": 3.82, "Source": "UN Population Division"}}
,{"type": "Feature", "geometry": {"type": "Point", "coordinates": [20.4633, 44.8176]}, "properties": {"Country Name": "Serbia", "City Name": "Belgrade", "Population 1990": "1129699", "Population 2000": 1121778.0, "Population 2010": 1160454, "%Growth Rate 1990-2001": -0.07, "%Growth Rate 2000-2011": 0.34, "Source": "UN Population Division"}}
,{"type": "Feature", "geometry": {"type": "Point", "coordinates": [103.8501, 1.2897]}, "properties": {"Country Name": "Singapore", "City Name": "Singapore", "Population 1990": "3016404", "Population 2000": 3918189.0, "Population 2010": 5078969, "%Growth Rate 1990-2001": 2.62, "%Growth Rate 2000-2011": 2.6, "Source": "UN Population Division"}}
,{"type": "Feature", "geometry": {"type": "Point", "coordinates": [28.0436, -26.2023]}, "properties": {"Country Name": "South Africa", "City Name": "Johannesburg", "Population 1990": "3708875", "Population 2000": 5605027.0, "Population 2010": 7991825, "%Growth Rate 1990-2001": 4.13, "%Growth Rate 2000-2011": 3.55, "Source": "UN Population Division"}}
,{"type": "Feature", "geometry": {"type": "Point", "coordinates": [25.5701, -33.918]}, "properties": {"Country Name": "South Africa", "City Name": "Port Elizabeth", "Population 1990": "827530", "Population 2000": 958028.0, "Population 2010": 1103828, "%Growth Rate 1990-2001": 1.46, "%Growth Rate 2000-2011": 1.42, "Source": "UN Population Division"}}
,{"type": "Feature", "geometry": {"type": "Point", "coordinates": [-3.7026, 40.4165]}, "properties": {"Country Name": "Spain", "City Name": "Madrid", "Population 1990": "4413870", "Population 2000": 5014411.0, "Population 2010": 5787392, "%Growth Rate 1990-2001": 1.28, "%Growth Rate 2000-2011": 1.43, "Source": "UN Population Division"}}
,{"type": "Feature", "geometry": {"type": "Point", "coordinates": [32.5324, 15.5518]}, "properties": {"Country Name": "Sudan", "City Name": "Khartoum", "Population 1990": "2360035", "Population 2000": 3505456.0, "Population 2010": 4517078, "%Growth Rate 1990-2001": 3.96, "%Growth Rate 2000-2011": 2.54, "Source": "UN Population Division"}}
,{"type": "Feature", "geometry": {"type": "Point", "coordinates": [6.6328, 46.516]}, "properties": {"Country Name": "Switzerland", "City Name": "Lausanne", "Population 1990": "296665", "Population 2000": 310954.0, "Population 2010": 337825, "%Growth Rate 1990-2001": 0.47, "%Growth Rate 2000-2011": 0.83, "Source": "UN Population Division"}}
,{"type": "Feature", "geometry": {"type": "Point", "coordinates": [36.6833, -3.3667]}, "properties": {"Country Name": "Tanzania", "City Name": "Arusha", "Population 1990": "119852", "Population 2000": 279757.0, "Population 2010": 397190, "%Growth Rate 1990-2001": 8.48, "%Growth Rate 2000-2011": 3.51, "Source": "UN Population Division"}}
,{"type": "Feature", "geometry": {"type": "Point", "coordinates": [100.5252, 13.722]}, "properties": {"Country Name": "Thailand", "City Name": "Bangkok", "Population 1990": "5888378", "Population 2000": 6360482.0, "Population 2010": 8213366, "%Growth Rate 1990-2001": 0.77, "%Growth Rate 2000-2011": 2.56, "Source": "UN Population Division"}}
,{"type": "Feature", "geometry": {"type": "Point", "coordinates": [10.0957, 35.673]}, "properties": {"Country Name": "Tunisia", "City Name": "Kairouan", "Population 1990": "89876", "Population 2000": 111825.0, "Population 2010": 128439, "%Growth Rate 1990-2001": 2.19, "%Growth Rate 2000-2011": 1.39, "Source": "UN Population Division"}}
,{"type": "Feature", "geometry": {"type": "Point", "coordinates": [28.9497, 41.0138]}, "properties": {"Country Name": "Turkey", "City Name": "Istanbul", "Population 1990": "6552160", "Population 2000": 8743868.0, "Population 2010": 12703384, "%Growth Rate 1990-2001": 2.89, "%Growth Rate 2000-2011": 3.74, "Source": "UN Population Division"}}
,{"type": "Feature", "geometry": {"type": "Point", "coordinates": [35.4853, 38.7322]}, "properties": {"Country Name": "Turkey", "City Name": "Kayseri", "Population 1990": "422399", "Population 2000": 532185.0, "Population 2010": 809128, "%Growth Rate 1990-2001": 2.31, "%Growth Rate 2000-2011": 4.19, "Source": "UN Population Division"}}
,{"type": "Feature", "geometry": {"type": "Point", "coordinates": [38.3167, 38.35]}, "properties": {"Country Name": "Turkey", "City Name": "Malatya", "Population 1990": "268654", "Population 2000": 377067.0, "Population 2010": 414521, "%Growth Rate 1990-2001": 3.39, "%Growth Rate 2000-2011": 0.95, "Source": "UN Population Division"}}
,{"type": "Feature", "geometry": {"type": "Point", "coordinates": [32.5822, 0.3163]}, "properties": {"Country Name": "Uganda", "City Name": "Kampala", "Population 1990": "754863", "Population 2000": 1096690.0, "Population 2010": 1594363, "%Growth Rate 1990-2001": 3.74, "%Growth Rate 2000-2011": 3.74, "Source": "UN Population Division"}}
,{"type": "Feature", "geometry": {"type": "Point", "coordinates": [31.9974, 46.9659]}, "properties": {"Country Name": "Ukraine", "City Name": "Nikolaev", "Population 1990": "502914", "Population 2000": 512601.0, "Population 2010": 500213, "%Growth Rate 1990-2001": 0.19, "%Growth Rate 2000-2011": -0.25, "Source": "UN Population Division"}}
,{"type": "Feature", "geometry": {"type": "Point", "coordinates": [26.2508, 50.6194]}, "properties": {"Country Name": "Ukraine", "City Name": "Rovno", "Population 1990": "229831", "Population 2000": 246519.0, "Population 2010": 245864, "%Growth Rate 1990-2001": 0.7, "%Growth Rate 2000-2011": -0.03, "Source": "UN Population Division"}}
,{"type": "Feature", "geometry": {"type": "Point", "coordinates": [-0.1257, 51.5085]}, "properties": {"Country Name": "United Kingdom", "City Name": "London", "Population 1990": "8053510", "Population 2000": 8612709.0, "Population 2010": 9698872, "%Growth Rate 1990-2001": 0.67, "%Growth Rate 2000-2011": 1.19, "Source": "UN Population Division"}}
,{"type": "Feature", "geometry": {"type": "Point", "coordinates": [-2.2374, 53.481]}, "properties": {"Country Name": "United Kingdom", "City Name": "Manchester", "Population 1990": "2281949", "Population 2000": 2345143.0, "Population 2010": 2537770, "%Growth Rate 1990-2001": 0.27, "%Growth Rate 2000-2011": 0.79, "Source": "UN Population Division"}}
,{"type": "Feature", "geometry": {"type": "Point", "coordinates": [-1.4659, 53.383]}, "properties": {"Country Name": "United Kingdom", "City Name": "Sheffield", "Population 1990": "634032", "Population 2000": 639831.0, "Population 2010": 681918, "%Growth Rate 1990-2001": 0.09, "%Growth Rate 2000-2011": 0.64, "Source": "UN Population Division"}}
,{"type": "Feature", "geometry": {"type": "Point", "coordinates": [-87.6501, 41.85]}, "properties": {"Country Name": "United States", "City Name": "Chicago", "Population 1990": "7373695", "Population 2000": 8315244.0, "Population 2010": 8615834, "%Growth Rate 1990-2001": 1.2, "%Growth Rate 2000-2011": 0.36, "Source": "UN Population Division"}}
,{"type": "Feature", "geometry": {"type": "Point", "coordinates": [-81.6874, 41.4986]}, "properties": {"Country Name": "United States", "City Name": "Cleveland", "Population 1990": "1680130", "Population 2000": 1786498.0, "Population 2010": 1780524, "%Growth Rate 1990-2001": 0.61, "%Growth Rate 2000-2011": -0.03, "Source": "UN Population Division"}}
,{"type": "Feature", "geometry": {"type": "Point", "coordinates": [-82.3289, 29.6446]}, "properties": {"Country Name": "United States", "City Name": "Gainesville", "Population 1990": "126954", "Population 2000": 160157.0, "Population 2010": 188547, "%Growth Rate 1990-2001": 2.32, "%Growth Rate 2000-2011": 1.63, "Source": "UN Population Division"}}
,{"type": "Feature", "geometry": {"type": "Point", "coordinates": [-95.3694, 29.7602]}, "properties": {"Country Name": "United States", "City Name": "Houston", "Population 1990": "2921851", "Population 2000": 3847050.0, "Population 2010": 4976162, "%Growth Rate 1990-2001": 2.75, "%Growth Rate 2000-2011": 2.57, "Source": "UN Population Division"}}
,{"type": "Feature", "geometry": {"type": "Point", "coordinates": [-97.7266, 31.1056]}, "properties": {"Country Name": "United States", "City Name": "Killeen", "Population 1990": "138556", "Population 2000": 169061.0, "Population 2010": 219040, "%Growth Rate 1990-2001": 1.99, "%Growth Rate 2000-2011": 2.59, "Source": "UN Population Division"}}
,{"type": "Feature", "geometry": {"type": "Point", "coordinates": [-118.2417, 34.0317]}, "properties": {"Country Name": "United States", "City Name": "Los Angeles-Long Beach-Santa Ana", "Population 1990": "10883429", "Population 2000": 11798345.0, "Population 2010": 12160151, "%Growth Rate 1990-2001": 0.81, "%Growth Rate 2000-2011": 0.3, "Source": "UN Population Division"}}
,{"type": "Feature", "geometry": {"type": "Point", "coordinates": [-93.2699, 44.9731]}, "properties": {"Country Name": "United States", "City Name": "Minneapolis-St. Paul", "Population 1990": "2086868", "Population 2000": 2394790.0, "Population 2010": 2657786, "%Growth Rate 1990-2001": 1.38, "%Growth Rate 2000-2011": 1.04, "Source": "UN Population Division"}}
,{"type": "Feature", "geometry": {"type": "Point", "coordinates": [-120.9945, 37.6615]}, "properties": {"Country Name": "United States", "City Name": "Modesto", "Population 1990": "232332", "Population 2000": 312040.0, "Population 2010": 359437, "%Growth Rate 1990-2001": 2.95, "%Growth Rate 2000-2011": 1.41, "Source": "UN Population Division"}}
,{"type": "Feature", "geometry": {"type": "Point", "coordinates": [-74.0037, 40.717]}, "properties": {"Country Name": "United States", "City Name": "New York-Newark", "Population 1990": "16085599", "Population 2000": 17813371.0, "Population 2010": 18365262, "%Growth Rate 1990-2001": 1.02, "%Growth Rate 2000-2011": 0.31, "Source": "UN Population Division"}}
,{"type": "Feature", "geometry": {"type": "Point", "coordinates": [-75.1638, 39.9523]}, "properties": {"Country Name": "United States", "City Name": "Philadelphia", "Population 1990": "4725101", "Population 2000": 5156159.0, "Population 2010": 5449069, "%Growth Rate 1990-2001": 0.87, "%Growth Rate 2000-2011": 0.55, "Source": "UN Population Division"}}
,{"type": "Feature", "geometry": {"type": "Point", "coordinates": [-122.6799, 45.5215]}, "properties": {"Country Name": "United States", "City Name": "Portland,OR", "Population 1990": "1180973", "Population 2000": 1589281.0, "Population 2010": 1857095, "%Growth Rate 1990-2001": 2.97, "%Growth Rate 2000-2011": 1.56, "Source": "UN Population Division"}}
,{"type": "Feature", "geometry": {"type": "Point", "coordinates": [-78.6375, 35.7789]}, "properties": {"Country Name": "United States", "City Name": "Raleigh", "Population 1990": "310311", "Population 2000": 548181.0, "Population 2010": 895794, "%Growth Rate 1990-2001": 5.69, "%Growth Rate 2000-2011": 4.91, "Source": "UN Population Division"}}
,{"type": "Feature", "geometry": {"type": "Point", "coordinates": [-72.5898, 42.1015]}, "properties": {"Country Name": "United States", "City Name": "Springfield, Massachusett, Connecticut", "Population 1990": "533729", "Population 2000": 574750.0, "Population 2010": 622539, "%Growth Rate 1990-2001": 0.74, "%Growth Rate 2000-2011": 0.8, "Source": "UN Population Division"}}
,{"type": "Feature", "geometry": {"type": "Point", "coordinates": [-83.5499, 41.6565]}, "properties": {"Country Name": "United States", "City Name": "Toledo", "Population 1990": "489496", "Population 2000": 503123.0, "Population 2010": 507759, "%Growth Rate 1990-2001": 0.27, "%Growth Rate 2000-2011": 0.09, "Source": "UN Population Division"}}
,{"type": "Feature", "geometry": {"type": "Point", "coordinates": [64.4124, 39.7649]}, "properties": {"Country Name": "Uzbekistan", "City Name": "Bukhara", "Population 1990": "225273", "Population 2000": 236237.0, "Population 2010": 247738, "%Growth Rate 1990-2001": 0.48, "%Growth Rate 2000-2011": 0.48, "Source": "UN Population Division"}}
,{"type": "Feature", "geometry": {"type": "Point", "coordinates": [69.2163, 41.2647]}, "properties": {"Country Name": "Uzbekistan", "City Name": "Tashkent", "Population 1990": "2100363", "Population 2000": 2134602.0, "Population 2010": 2208834, "%Growth Rate 1990-2001": 0.16, "%Growth Rate 2000-2011": 0.34, "Source": "UN Population Division"}}
,{"type": "Feature", "geometry": {"type": "Point", "coordinates": [-71.4399, 10.3883]}, "properties": {"Country Name": "Venezuela", "City Name": "Cabimas", "Population 1990": "218682", "Population 2000": 250149.0, "Population 2010": 315650, "%Growth Rate 1990-2001": 1.34, "%Growth Rate 2000-2011": 2.33, "Source": "UN Population Division"}}
,{"type": "Feature", "geometry": {"type": "Point", "coordinates": [-66.8792, 10.488]}, "properties": {"Country Name": "Venezuela", "City Name": "Caracas", "Population 1990": "2766966", "Population 2000": 2863944.0, "Population 2010": 2900895, "%Growth Rate 1990-2001": 0.34, "%Growth Rate 2000-2011": 0.13, "Source": "UN Population Division"}}
,{"type": "Feature", "geometry": {"type": "Point", "coordinates": [106.6667, 10.75]}, "properties": {"Country Name": "Vietnam", "City Name": "Ho Chi Minh City", "Population 1990": "3037805", "Population 2000": 4389369.0, "Population 2010": 6189370, "%Growth Rate 1990-2001": 3.68, "%Growth Rate 2000-2011": 3.44, "Source": "UN Population Division"}}
,{"type": "Feature", "geometry": {"type": "Point", "coordinates": [105.9667, 10.25]}, "properties": {"Country Name": "Vietnam", "City Name": "Vinh Long", "Population 1990": "82498", "Population 2000": 90577.0, "Population 2010": 104983, "%Growth Rate 1990-2001": 0.93, "%Growth Rate 2000-2011": 1.48, "Source": "UN Population Division"}}
,{"type": "Feature", "geometry": {"type": "Point", "coordinates": [44.2078, 15.3531]}, "properties": {"Country Name": "Yemen", "City Name": "Sana", "Population 1990": "653469", "Population 2000": 1347303.0, "Population 2010": 2291298, "%Growth Rate 1990-2001": 7.24, "%Growth Rate 2000-2011": 5.31, "Source": "UN Population Division"}}
,{"type": "Feature", "geometry": {"type": "Point", "coordinates": [28.6366, -12.9587]}, "properties": {"Country Name": "Zambia", "City Name": "Ndola", "Population 1990": "333984", "Population 2000": 373498.0, "Population 2010": 452604, "%Growth Rate 1990-2001": 1.12, "%Growth Rate 2000-2011": 1.92, "Source": "UN Population Division"}}
]}